{
  "LARIEN": {
    "city_state": "ATWATER VILLAGE",
    "gym_code": "LARIEN",
    "gym_name": "LA River Entrance",
    "lat_long": "34.122476,-118.270058",
    "gmap_link": "https://www.google.com/maps/place/34.122476,-118.270058"
  },
  "RECARI": {
    "city_state": "ATWATER VILLAGE",
    "gym_code": "RECARI",
    "gym_name": "Red Car River Park",
    "lat_long": "34.113654,-118.26463",
    "gmap_link": "https://www.google.com/maps/place/34.113654,-118.26463"
  },
  "SEREFE": {
    "city_state": "ATWATER VILLAGE",
    "gym_code": "SEREFE",
    "gym_name": "Self Realization Fellowship",
    "lat_long": "34.098025,-118.295563",
    "gmap_link": "https://www.google.com/maps/place/34.098025,-118.295563"
  },
  "SHMU": {
    "city_state": "ATWATER VILLAGE",
    "gym_code": "SHMU",
    "gym_name": "Shepherd Mural",
    "lat_long": "34.108156,-118.263436",
    "gmap_link": "https://www.google.com/maps/place/34.108156,-118.263436"
  },
  "SUFOMA": {
    "city_state": "ATWATER VILLAGE",
    "gym_code": "SUFOMA",
    "gym_name": "Sunnynook Footbridge Marker",
    "lat_long": "34.116424,-118.266867",
    "gmap_link": "https://www.google.com/maps/place/34.116424,-118.266867"
  },
  "SURIPA": {
    "city_state": "ATWATER VILLAGE",
    "gym_code": "SURIPA",
    "gym_name": "Sunnynook River Park",
    "lat_long": "34.115748,-118.267987",
    "gmap_link": "https://www.google.com/maps/place/34.115748,-118.267987"
  },
  "YOPAPY": {
    "city_state": "ATWATER VILLAGE",
    "gym_code": "YOPAPY",
    "gym_name": "Yoga Park Pyramid",
    "lat_long": "34.11834,-118.26812",
    "gmap_link": "https://www.google.com/maps/place/34.11834,-118.26812"
  },
  "DOGA": {
    "city_state": "BARNSDALL PARK",
    "gym_code": "DOGA",
    "gym_name": "Dogman Gargoyle",
    "lat_long": "34.09985,-118.293742",
    "gmap_link": "https://www.google.com/maps/place/34.09985,-118.293742"
  },
  "BEPA": {
    "city_state": "CHINATOWN",
    "gym_code": "BEPA",
    "gym_name": "Bears Painting",
    "lat_long": "34.060562,-118.243477",
    "gmap_link": "https://www.google.com/maps/place/34.060562,-118.243477"
  },
  "CHBE": {
    "city_state": "CHINATOWN",
    "gym_code": "CHBE",
    "gym_name": "China Bell",
    "lat_long": "34.063473,-118.236041",
    "gmap_link": "https://www.google.com/maps/place/34.063473,-118.236041"
  },
  "COPL": {
    "city_state": "CHINATOWN",
    "gym_code": "COPL",
    "gym_name": "Confluence Plaza",
    "lat_long": "34.081885,-118.225564",
    "gmap_link": "https://www.google.com/maps/place/34.081885,-118.225564"
  },
  "GRHACH": {
    "city_state": "CHINATOWN",
    "gym_code": "GRHACH",
    "gym_name": "Grace Hall Church",
    "lat_long": "34.074497,-118.224123",
    "gmap_link": "https://www.google.com/maps/place/34.074497,-118.224123"
  },
  "LAMUCH": {
    "city_state": "CHINATOWN",
    "gym_code": "LAMUCH",
    "gym_name": "Lax-C Mural Chinatown",
    "lat_long": "34.063729,-118.23246",
    "gmap_link": "https://www.google.com/maps/place/34.063729,-118.23246"
  },
  "NICAMU": {
    "city_state": "CHINATOWN",
    "gym_code": "NICAMU",
    "gym_name": "Nick's Cafe Mural",
    "lat_long": "34.065997,-118.233178",
    "gmap_link": "https://www.google.com/maps/place/34.065997,-118.233178"
  },
  "ORPOFO": {
    "city_state": "CHINATOWN",
    "gym_code": "ORPOFO",
    "gym_name": "Orsini Poseidon Fountain",
    "lat_long": "34.062477,-118.24736",
    "gmap_link": "https://www.google.com/maps/place/34.062477,-118.24736"
  },
  "OUTHMA": {
    "city_state": "CHINATOWN",
    "gym_code": "OUTHMA",
    "gym_name": "Our Thoughts Make the World",
    "lat_long": "34.065501,-118.238758",
    "gmap_link": "https://www.google.com/maps/place/34.065501,-118.238758"
  },
  "PH": {
    "city_state": "CHINATOWN",
    "gym_code": "PH",
    "gym_name": "Philippe",
    "lat_long": "34.059594,-118.236901",
    "gmap_link": "https://www.google.com/maps/place/34.059594,-118.236901"
  },
  "RELEBO": {
    "city_state": "CHINATOWN",
    "gym_code": "RELEBO",
    "gym_name": "Reserve Level Bobble Head",
    "lat_long": "34.07345,-118.2416",
    "gmap_link": "https://www.google.com/maps/place/34.07345,-118.2416"
  },
  "ROPAMO": {
    "city_state": "CHINATOWN",
    "gym_code": "ROPAMO",
    "gym_name": "Royal Pagoda Motel Waterfall",
    "lat_long": "34.06669,-118.236041",
    "gmap_link": "https://www.google.com/maps/place/34.06669,-118.236041"
  },
  "STANCR": {
    "city_state": "CHINATOWN",
    "gym_code": "STANCR",
    "gym_name": "St. Anthony's Croatian Parish",
    "lat_long": "34.063424,-118.243243",
    "gmap_link": "https://www.google.com/maps/place/34.063424,-118.243243"
  },
  "STPEIT": {
    "city_state": "CHINATOWN",
    "gym_code": "STPEIT",
    "gym_name": "St. Peter's Italian Catholic Church",
    "lat_long": "34.067896,-118.234916",
    "gmap_link": "https://www.google.com/maps/place/34.067896,-118.234916"
  },
  "SUCH": {
    "city_state": "CHINATOWN",
    "gym_code": "SUCH",
    "gym_name": "Superior Chicken",
    "lat_long": "34.061765,-118.238447",
    "gmap_link": "https://www.google.com/maps/place/34.061765,-118.238447"
  },
  "THLEBR": {
    "city_state": "CHINATOWN",
    "gym_code": "THLEBR",
    "gym_name": "The Legend Bruce Lee Statue",
    "lat_long": "34.06637,-118.237223",
    "gmap_link": "https://www.google.com/maps/place/34.06637,-118.237223"
  },
  "THPUMU": {
    "city_state": "CHINATOWN",
    "gym_code": "THPUMU",
    "gym_name": "The Punk Museum",
    "lat_long": "34.06927,-118.227848",
    "gmap_link": "https://www.google.com/maps/place/34.06927,-118.227848"
  },
  "TOLAST": {
    "city_state": "CHINATOWN",
    "gym_code": "TOLAST",
    "gym_name": "Tommy Lasorda Statue",
    "lat_long": "34.074237,-118.238919",
    "gmap_link": "https://www.google.com/maps/place/34.074237,-118.238919"
  },
  "TOLALA": {
    "city_state": "CHINATOWN",
    "gym_code": "TOLALA",
    "gym_name": "Tommy Lasorda: LA Dodgers Manager",
    "lat_long": "34.074945,-118.240985",
    "gmap_link": "https://www.google.com/maps/place/34.074945,-118.240985"
  },
  "10BU": {
    "city_state": "DOWNTOWN",
    "gym_code": "10BU",
    "gym_name": "1010 Buddha",
    "lat_long": "34.051394,-118.261818",
    "gmap_link": "https://www.google.com/maps/place/34.051394,-118.261818"
  },
  "ANCIBR": {
    "city_state": "DOWNTOWN",
    "gym_code": "ANCIBR",
    "gym_name": "Angel City Brewery Exterior Art",
    "lat_long": "34.046301,-118.237488",
    "gmap_link": "https://www.google.com/maps/place/34.046301,-118.237488"
  },
  "AOTR": {
    "city_state": "DOWNTOWN",
    "gym_code": "AOTR",
    "gym_name": "Aoyama Tree",
    "lat_long": "34.050214,-118.239153",
    "gmap_link": "https://www.google.com/maps/place/34.050214,-118.239153"
  },
  "ARJWI": {
    "city_state": "DOWNTOWN",
    "gym_code": "ARJWI",
    "gym_name": "Arthur J Will Memorial Fountain",
    "lat_long": "34.0565,-118.247168",
    "gmap_link": "https://www.google.com/maps/place/34.0565,-118.247168"
  },
  "BEST": {
    "city_state": "DOWNTOWN",
    "gym_code": "BEST",
    "gym_name": "Beethoven Statue",
    "lat_long": "34.048613,-118.25235",
    "gmap_link": "https://www.google.com/maps/place/34.048613,-118.25235"
  },
  "BECOAR": {
    "city_state": "DOWNTOWN",
    "gym_code": "BECOAR",
    "gym_name": "Bell Communications Around The Globe",
    "lat_long": "34.050802,-118.25315",
    "gmap_link": "https://www.google.com/maps/place/34.050802,-118.25315"
  },
  "BITOEA": {
    "city_state": "DOWNTOWN",
    "gym_code": "BITOEA",
    "gym_name": "Bicycle Tower East",
    "lat_long": "34.048111,-118.258324",
    "gmap_link": "https://www.google.com/maps/place/34.048111,-118.258324"
  },
  "BICL7": {
    "city_state": "DOWNTOWN",
    "gym_code": "BICL7",
    "gym_name": "Big Clay 7",
    "lat_long": "34.050654,-118.239704",
    "gmap_link": "https://www.google.com/maps/place/34.050654,-118.239704"
  },
  "CAIRPU": {
    "city_state": "DOWNTOWN",
    "gym_code": "CAIRPU",
    "gym_name": "Casey's Irish Pub",
    "lat_long": "34.048417,-118.255738",
    "gmap_link": "https://www.google.com/maps/place/34.048417,-118.255738"
  },
  "CHMOLI": {
    "city_state": "DOWNTOWN",
    "gym_code": "CHMOLI",
    "gym_name": "Challenger Monument Little Tokyo",
    "lat_long": "34.05003,-118.24188",
    "gmap_link": "https://www.google.com/maps/place/34.05003,-118.24188"
  },
  "CHSESU": {
    "city_state": "DOWNTOWN",
    "gym_code": "CHSESU",
    "gym_name": "Chiune Sempo Sugihara",
    "lat_long": "34.04792,-118.239176",
    "gmap_link": "https://www.google.com/maps/place/34.04792,-118.239176"
  },
  "CICEGR": {
    "city_state": "DOWNTOWN",
    "gym_code": "CICEGR",
    "gym_name": "Civic Center Grand Park Metro Rail Station Entrance",
    "lat_long": "34.054209,-118.246951",
    "gmap_link": "https://www.google.com/maps/place/34.054209,-118.246951"
  },
  "CO": {
    "city_state": "DOWNTOWN",
    "gym_code": "CO",
    "gym_name": "Cole's",
    "lat_long": "34.044796,-118.249451",
    "gmap_link": "https://www.google.com/maps/place/34.044796,-118.249451"
  },
  "CODAL": {
    "city_state": "DOWNTOWN",
    "gym_code": "CODAL",
    "gym_name": "Colpo D Ala",
    "lat_long": "34.057653,-118.249931",
    "gmap_link": "https://www.google.com/maps/place/34.057653,-118.249931"
  },
  "DOMUDO": {
    "city_state": "DOWNTOWN",
    "gym_code": "DOMUDO",
    "gym_name": "Downtown Mural Downtown",
    "lat_long": "34.046108,-118.249289",
    "gmap_link": "https://www.google.com/maps/place/34.046108,-118.249289"
  },
  "ETMU": {
    "city_state": "DOWNTOWN",
    "gym_code": "ETMU",
    "gym_name": "E T Mural",
    "lat_long": "34.032232,-118.258179",
    "gmap_link": "https://www.google.com/maps/place/34.032232,-118.258179"
  },
  "FADICR": {
    "city_state": "DOWNTOWN",
    "gym_code": "FADICR",
    "gym_name": "Fashion District Crosswalk Marker",
    "lat_long": "34.037799,-118.256026",
    "gmap_link": "https://www.google.com/maps/place/34.037799,-118.256026"
  },
  "FOLEUN": {
    "city_state": "DOWNTOWN",
    "gym_code": "FOLEUN",
    "gym_name": "Footsteps Lead Unto Destiny",
    "lat_long": "34.050793,-118.241008",
    "gmap_link": "https://www.google.com/maps/place/34.050793,-118.241008"
  },
  "GLIN": {
    "city_state": "DOWNTOWN",
    "gym_code": "GLIN",
    "gym_name": "GLAMAZON. INC",
    "lat_long": "34.037548,-118.246071",
    "gmap_link": "https://www.google.com/maps/place/34.037548,-118.246071"
  },
  "GOBATO": {
    "city_state": "DOWNTOWN",
    "gym_code": "GOBATO",
    "gym_name": "Go Back to School",
    "lat_long": "34.027213,-118.257661",
    "gmap_link": "https://www.google.com/maps/place/34.027213,-118.257661"
  },
  "GRARHI": {
    "city_state": "DOWNTOWN",
    "gym_code": "GRARHI",
    "gym_name": "Grand Arts High School",
    "lat_long": "34.059058,-118.244343",
    "gmap_link": "https://www.google.com/maps/place/34.059058,-118.244343"
  },
  "GRPAN": {
    "city_state": "DOWNTOWN",
    "gym_code": "GRPAN",
    "gym_name": "Grand Park: N Spring",
    "lat_long": "34.054097,-118.243599",
    "gmap_link": "https://www.google.com/maps/place/34.054097,-118.243599"
  },
  "GUMU": {
    "city_state": "DOWNTOWN",
    "gym_code": "GUMU",
    "gym_name": "Guisados Mural",
    "lat_long": "34.070094,-118.250215",
    "gmap_link": "https://www.google.com/maps/place/34.070094,-118.250215"
  },
  "HAMOFU": {
    "city_state": "DOWNTOWN",
    "gym_code": "HAMOFU",
    "gym_name": "Half Moon Fuente",
    "lat_long": "34.049329,-118.255679",
    "gmap_link": "https://www.google.com/maps/place/34.049329,-118.255679"
  },
  "HATIAR": {
    "city_state": "DOWNTOWN",
    "gym_code": "HATIAR",
    "gym_name": "Hammer Time Art",
    "lat_long": "34.040924,-118.25504",
    "gmap_link": "https://www.google.com/maps/place/34.040924,-118.25504"
  },
  "IATIT": {
    "city_state": "DOWNTOWN",
    "gym_code": "IATIT",
    "gym_name": "I Ate It All Mural",
    "lat_long": "34.044998,-118.248738",
    "gmap_link": "https://www.google.com/maps/place/34.044998,-118.248738"
  },
  "ICCRAR": {
    "city_state": "DOWNTOWN",
    "gym_code": "ICCRAR",
    "gym_name": "Ice Cream Art",
    "lat_long": "34.023677,-118.259761",
    "gmap_link": "https://www.google.com/maps/place/34.023677,-118.259761"
  },
  "JAHAN": {
    "city_state": "DOWNTOWN",
    "gym_code": "JAHAN",
    "gym_name": "James H Anthony Reflecting Pool",
    "lat_long": "34.057768,-118.248971",
    "gmap_link": "https://www.google.com/maps/place/34.057768,-118.248971"
  },
  "JOBUTE": {
    "city_state": "DOWNTOWN",
    "gym_code": "JOBUTE",
    "gym_name": "Jodoshu Buddhist Temple",
    "lat_long": "34.046625,-118.241276",
    "gmap_link": "https://www.google.com/maps/place/34.046625,-118.241276"
  },
  "LACIWA": {
    "city_state": "DOWNTOWN",
    "gym_code": "LACIWA",
    "gym_name": "La City Wall Mural",
    "lat_long": "34.032743,-118.261634",
    "gmap_link": "https://www.google.com/maps/place/34.032743,-118.261634"
  },
  "LAKIST": {
    "city_state": "DOWNTOWN",
    "gym_code": "LAKIST",
    "gym_name": "La Kings Stanley Cup Banners",
    "lat_long": "34.043645,-118.26719",
    "gmap_link": "https://www.google.com/maps/place/34.043645,-118.26719"
  },
  "LAMUDO": {
    "city_state": "DOWNTOWN",
    "gym_code": "LAMUDO",
    "gym_name": "Lakers Mural Downtown",
    "lat_long": "34.034571,-118.25739",
    "gmap_link": "https://www.google.com/maps/place/34.034571,-118.25739"
  },
  "LOCIHA": {
    "city_state": "DOWNTOWN",
    "gym_code": "LOCIHA",
    "gym_name": "Los-Angeles City Hall",
    "lat_long": "34.053906,-118.243136",
    "gmap_link": "https://www.google.com/maps/place/34.053906,-118.243136"
  },
  "LOANCO": {
    "city_state": "DOWNTOWN",
    "gym_code": "LOANCO",
    "gym_name": "Los Angeles Convention Center",
    "lat_long": "34.037779,-118.27027",
    "gmap_link": "https://www.google.com/maps/place/34.037779,-118.27027"
  },
  "MA": {
    "city_state": "DOWNTOWN",
    "gym_code": "MA",
    "gym_name": "Mayan",
    "lat_long": "34.040668,-118.259208",
    "gmap_link": "https://www.google.com/maps/place/34.040668,-118.259208"
  },
  "MEPESQ": {
    "city_state": "DOWNTOWN",
    "gym_code": "MEPESQ",
    "gym_name": "Metro Pershing Square",
    "lat_long": "34.050603,-118.250515",
    "gmap_link": "https://www.google.com/maps/place/34.050603,-118.250515"
  },
  "MOLATE": {
    "city_state": "DOWNTOWN",
    "gym_code": "MOLATE",
    "gym_name": "Mosaic Law Ten Commandments Statue",
    "lat_long": "34.056787,-118.246654",
    "gmap_link": "https://www.google.com/maps/place/34.056787,-118.246654"
  },
  "MOMU": {
    "city_state": "DOWNTOWN",
    "gym_code": "MOMU",
    "gym_name": "Moskatels Mural",
    "lat_long": "34.040746,-118.248295",
    "gmap_link": "https://www.google.com/maps/place/34.040746,-118.248295"
  },
  "MUOFPA": {
    "city_state": "DOWNTOWN",
    "gym_code": "MUOFPA",
    "gym_name": "Murals of Past Mexican Leaders",
    "lat_long": "34.028376,-118.258574",
    "gmap_link": "https://www.google.com/maps/place/34.028376,-118.258574"
  },
  "NEINTH": {
    "city_state": "DOWNTOWN",
    "gym_code": "NEINTH",
    "gym_name": "Needle In The Haystack",
    "lat_long": "34.035049,-118.252119",
    "gmap_link": "https://www.google.com/maps/place/34.035049,-118.252119"
  },
  "OLGACO": {
    "city_state": "DOWNTOWN",
    "gym_code": "OLGACO",
    "gym_name": "Old Gas Company Facade",
    "lat_long": "34.046882,-118.260312",
    "gmap_link": "https://www.google.com/maps/place/34.046882,-118.260312"
  },
  "OOCU": {
    "city_state": "DOWNTOWN",
    "gym_code": "OOCU",
    "gym_name": "OOMO Cube",
    "lat_long": "34.049346,-118.239057",
    "gmap_link": "https://www.google.com/maps/place/34.049346,-118.239057"
  },
  "PAGISW": {
    "city_state": "DOWNTOWN",
    "gym_code": "PAGISW",
    "gym_name": "Parking Girl Swing",
    "lat_long": "34.041942,-118.256292",
    "gmap_link": "https://www.google.com/maps/place/34.041942,-118.256292"
  },
  "PIST": {
    "city_state": "DOWNTOWN",
    "gym_code": "PIST",
    "gym_name": "Pico Station",
    "lat_long": "34.040765,-118.266016",
    "gmap_link": "https://www.google.com/maps/place/34.040765,-118.266016"
  },
  "REHADA": {
    "city_state": "DOWNTOWN",
    "gym_code": "REHADA",
    "gym_name": "Red Hair Dank",
    "lat_long": "34.036885,-118.249366",
    "gmap_link": "https://www.google.com/maps/place/34.036885,-118.249366"
  },
  "RESP": {
    "city_state": "DOWNTOWN",
    "gym_code": "RESP",
    "gym_name": "Red Spikes",
    "lat_long": "34.045692,-118.265783",
    "gmap_link": "https://www.google.com/maps/place/34.045692,-118.265783"
  },
  "SARU": {
    "city_state": "DOWNTOWN",
    "gym_code": "SARU",
    "gym_name": "Salmon Run",
    "lat_long": "34.05223,-118.257423",
    "gmap_link": "https://www.google.com/maps/place/34.05223,-118.257423"
  },
  "SKRIEV": {
    "city_state": "DOWNTOWN",
    "gym_code": "SKRIEV",
    "gym_name": "Skull Risk Everything",
    "lat_long": "34.056267,-118.252911",
    "gmap_link": "https://www.google.com/maps/place/34.056267,-118.252911"
  },
  "SO(KNI": {
    "city_state": "DOWNTOWN",
    "gym_code": "SO(KNI",
    "gym_name": "Sontuko (Kinjiro) Ninomiya",
    "lat_long": "34.049072,-118.241622",
    "gmap_link": "https://www.google.com/maps/place/34.049072,-118.241622"
  },
  "SP": {
    "city_state": "DOWNTOWN",
    "gym_code": "SP",
    "gym_name": "Spool",
    "lat_long": "34.034187,-118.252709",
    "gmap_link": "https://www.google.com/maps/place/34.034187,-118.252709"
  },
  "SPBRAN": {
    "city_state": "DOWNTOWN",
    "gym_code": "SPBRAN",
    "gym_name": "Sprint Broadway and 5th",
    "lat_long": "34.0485389,-118.2497657",
    "gmap_link": "https://www.google.com/maps/place/34.0485389,-118.2497657"
  },
  "STFL5T": {
    "city_state": "DOWNTOWN",
    "gym_code": "STFL5T",
    "gym_name": "Starbucks Flower 5th",
    "lat_long": "34.05143715,-118.2569608",
    "gmap_link": "https://www.google.com/maps/place/34.05143715,-118.2569608"
  },
  "STFL9T": {
    "city_state": "DOWNTOWN",
    "gym_code": "STFL9T",
    "gym_name": "Starbucks Flower 9th",
    "lat_long": "34.04549,-118.26139",
    "gmap_link": "https://www.google.com/maps/place/34.04549,-118.26139"
  },
  "STGRAN": {
    "city_state": "DOWNTOWN",
    "gym_code": "STGRAN",
    "gym_name": "Starbucks Grand and 11th",
    "lat_long": "34.04152,-118.26232",
    "gmap_link": "https://www.google.com/maps/place/34.04152,-118.26232"
  },
  "STLOAN": {
    "city_state": "DOWNTOWN",
    "gym_code": "STLOAN",
    "gym_name": "Starbucks Los Angeles and 1st",
    "lat_long": "34.050865,-118.2422",
    "gmap_link": "https://www.google.com/maps/place/34.050865,-118.2422"
  },
  "STAR1": {
    "city_state": "DOWNTOWN",
    "gym_code": "STAR1",
    "gym_name": "Street Art 1",
    "lat_long": "34.042135,-118.259454",
    "gmap_link": "https://www.google.com/maps/place/34.042135,-118.259454"
  },
  "STMUUN": {
    "city_state": "DOWNTOWN",
    "gym_code": "STMUUN",
    "gym_name": "Street Mural under Flyover",
    "lat_long": "34.061549,-118.258438",
    "gmap_link": "https://www.google.com/maps/place/34.061549,-118.258438"
  },
  "TAFLWA": {
    "city_state": "DOWNTOWN",
    "gym_code": "TAFLWA",
    "gym_name": "Take Flight Wall Art",
    "lat_long": "34.047482,-118.274211",
    "gmap_link": "https://www.google.com/maps/place/34.047482,-118.274211"
  },
  "THEACO": {
    "city_state": "DOWNTOWN",
    "gym_code": "THEACO",
    "gym_name": "The Eastern Columbia Clocktower",
    "lat_long": "34.042699,-118.256487",
    "gmap_link": "https://www.google.com/maps/place/34.042699,-118.256487"
  },
  "THPUAB": {
    "city_state": "DOWNTOWN",
    "gym_code": "THPUAB",
    "gym_name": "The Public Abandons Philosophy",
    "lat_long": "34.049031,-118.261428",
    "gmap_link": "https://www.google.com/maps/place/34.049031,-118.261428"
  },
  "THVIKI": {
    "city_state": "DOWNTOWN",
    "gym_code": "THVIKI",
    "gym_name": "The Vibrant Kiss",
    "lat_long": "34.032946,-118.251647",
    "gmap_link": "https://www.google.com/maps/place/34.032946,-118.251647"
  },
  "TOBREX": {
    "city_state": "DOWNTOWN",
    "gym_code": "TOBREX",
    "gym_name": "Tom Bradley Exhibit Hall Plaque",
    "lat_long": "34.040113,-118.269787",
    "gmap_link": "https://www.google.com/maps/place/34.040113,-118.269787"
  },
  "UNTHBR": {
    "city_state": "DOWNTOWN",
    "gym_code": "UNTHBR",
    "gym_name": "Under the Bridge",
    "lat_long": "34.057809,-118.254846",
    "gmap_link": "https://www.google.com/maps/place/34.057809,-118.254846"
  },
  "UNCHLO": {
    "city_state": "DOWNTOWN",
    "gym_code": "UNCHLO",
    "gym_name": "Union Church-of Los Angeles",
    "lat_long": "34.047389,-118.24226",
    "gmap_link": "https://www.google.com/maps/place/34.047389,-118.24226"
  },
  "UNWO": {
    "city_state": "DOWNTOWN",
    "gym_code": "UNWO",
    "gym_name": "Unstable Wormhole",
    "lat_long": "34.046456,-118.266031",
    "gmap_link": "https://www.google.com/maps/place/34.046456,-118.266031"
  },
  "UPRO": {
    "city_state": "DOWNTOWN",
    "gym_code": "UPRO",
    "gym_name": "Uptown Rocker",
    "lat_long": "34.051946,-118.25277",
    "gmap_link": "https://www.google.com/maps/place/34.051946,-118.25277"
  },
  "USPODO": {
    "city_state": "DOWNTOWN",
    "gym_code": "USPODO",
    "gym_name": "US Post-Office Downtown",
    "lat_long": "34.02328,-118.292069",
    "gmap_link": "https://www.google.com/maps/place/34.02328,-118.292069"
  },
  "VIMAAR": {
    "city_state": "DOWNTOWN",
    "gym_code": "VIMAAR",
    "gym_name": "Virgin Mary Art Mural",
    "lat_long": "34.043794,-118.27622",
    "gmap_link": "https://www.google.com/maps/place/34.043794,-118.27622"
  },
  "VOBYMA": {
    "city_state": "DOWNTOWN",
    "gym_code": "VOBYMA",
    "gym_name": "voLAr by ManOneArt",
    "lat_long": "34.047471,-118.26077",
    "gmap_link": "https://www.google.com/maps/place/34.047471,-118.26077"
  },
  "WADICO": {
    "city_state": "DOWNTOWN",
    "gym_code": "WADICO",
    "gym_name": "Walt Disney Concert Hall",
    "lat_long": "34.05564,-118.249201",
    "gmap_link": "https://www.google.com/maps/place/34.05564,-118.249201"
  },
  "WIMU": {
    "city_state": "DOWNTOWN",
    "gym_code": "WIMU",
    "gym_name": "Wildflower Mural",
    "lat_long": "34.057197,-118.262584",
    "gmap_link": "https://www.google.com/maps/place/34.057197,-118.262584"
  },
  "ZAMA19": {
    "city_state": "DOWNTOWN",
    "gym_code": "ZAMA19",
    "gym_name": "Zanja Madre 1992",
    "lat_long": "34.047561,-118.261919",
    "gmap_link": "https://www.google.com/maps/place/34.047561,-118.261919"
  },
  "7TADEA": {
    "city_state": "EAST HOLLYWOOD",
    "gym_code": "7TADEA",
    "gym_name": "7thDay Adventist-Church East Hollywood",
    "lat_long": "34.090049,-118.300601",
    "gmap_link": "https://www.google.com/maps/place/34.090049,-118.300601"
  },
  "8TSTTU": {
    "city_state": "EAST HOLLYWOOD",
    "gym_code": "8TSTTU",
    "gym_name": "8th St Turtle Pond",
    "lat_long": "34.060766,-118.354062",
    "gmap_link": "https://www.google.com/maps/place/34.060766,-118.354062"
  },
  "ADOR[S": {
    "city_state": "EAST HOLLYWOOD",
    "gym_code": "ADOR[S",
    "gym_name": "Advanced Organization [Scientology] Los Angeles",
    "lat_long": "34.095769,-118.293736",
    "gmap_link": "https://www.google.com/maps/place/34.095769,-118.293736"
  },
  "AN": {
    "city_state": "EAST HOLLYWOOD",
    "gym_code": "AN",
    "gym_name": "Angeles",
    "lat_long": "34.08955,-118.32236",
    "gmap_link": "https://www.google.com/maps/place/34.08955,-118.32236"
  },
  "ARCHAR": {
    "city_state": "EAST HOLLYWOOD",
    "gym_code": "ARCHAR",
    "gym_name": "Armenian Church Art",
    "lat_long": "34.101977,-118.300665",
    "gmap_link": "https://www.google.com/maps/place/34.101977,-118.300665"
  },
  "ARGECO": {
    "city_state": "EAST HOLLYWOOD",
    "gym_code": "ARGECO",
    "gym_name": "Armenian Genocide Commemorative Mural",
    "lat_long": "34.101867,-118.29784",
    "gmap_link": "https://www.google.com/maps/place/34.101867,-118.29784"
  },
  "BI": {
    "city_state": "EAST HOLLYWOOD",
    "gym_code": "BI",
    "gym_name": "BIA",
    "lat_long": "34.083777,-118.291877",
    "gmap_link": "https://www.google.com/maps/place/34.083777,-118.291877"
  },
  "BLWOMU": {
    "city_state": "EAST HOLLYWOOD",
    "gym_code": "BLWOMU",
    "gym_name": "Blue Worms Mural",
    "lat_long": "34.10164,-118.305332",
    "gmap_link": "https://www.google.com/maps/place/34.10164,-118.305332"
  },
  "BOBOMU": {
    "city_state": "EAST HOLLYWOOD",
    "gym_code": "BOBOMU",
    "gym_name": "Boom box Murals",
    "lat_long": "34.076429,-118.296711",
    "gmap_link": "https://www.google.com/maps/place/34.076429,-118.296711"
  },
  "BRMU": {
    "city_state": "EAST HOLLYWOOD",
    "gym_code": "BRMU",
    "gym_name": "Bridge Mural",
    "lat_long": "34.077534,-118.281431",
    "gmap_link": "https://www.google.com/maps/place/34.077534,-118.281431"
  },
  "BUCO": {
    "city_state": "EAST HOLLYWOOD",
    "gym_code": "BUCO",
    "gym_name": "Bukowski Court",
    "lat_long": "34.096593,-118.301499",
    "gmap_link": "https://www.google.com/maps/place/34.096593,-118.301499"
  },
  "CA50": {
    "city_state": "EAST HOLLYWOOD",
    "gym_code": "CA50",
    "gym_name": "Cafe 50's",
    "lat_long": "34.086777,-118.291564",
    "gmap_link": "https://www.google.com/maps/place/34.086777,-118.291564"
  },
  "CARA": {
    "city_state": "EAST HOLLYWOOD",
    "gym_code": "CARA",
    "gym_name": "California Raisin",
    "lat_long": "34.088612,-118.308386",
    "gmap_link": "https://www.google.com/maps/place/34.088612,-118.308386"
  },
  "CHCHCH": {
    "city_state": "EAST HOLLYWOOD",
    "gym_code": "CHCHCH",
    "gym_name": "Cha Cha Cha Dinner",
    "lat_long": "34.083446,-118.286732",
    "gmap_link": "https://www.google.com/maps/place/34.083446,-118.286732"
  },
  "COMUEA": {
    "city_state": "EAST HOLLYWOOD",
    "gym_code": "COMUEA",
    "gym_name": "Collective Mural East Hollywood",
    "lat_long": "34.095539,-118.287746",
    "gmap_link": "https://www.google.com/maps/place/34.095539,-118.287746"
  },
  "COPRMU": {
    "city_state": "EAST HOLLYWOOD",
    "gym_code": "COPRMU",
    "gym_name": "Commodities Priorities Mural",
    "lat_long": "34.083254,-118.29499",
    "gmap_link": "https://www.google.com/maps/place/34.083254,-118.29499"
  },
  "DODR": {
    "city_state": "EAST HOLLYWOOD",
    "gym_code": "DODR",
    "gym_name": "Dodgers Dreamfield",
    "lat_long": "34.086467,-118.303765",
    "gmap_link": "https://www.google.com/maps/place/34.086467,-118.303765"
  },
  "DOSMMU": {
    "city_state": "EAST HOLLYWOOD",
    "gym_code": "DOSMMU",
    "gym_name": "Dominic Smith Mural",
    "lat_long": "34.072828,-118.290861",
    "gmap_link": "https://www.google.com/maps/place/34.072828,-118.290861"
  },
  "FABIMU": {
    "city_state": "EAST HOLLYWOOD",
    "gym_code": "FABIMU",
    "gym_name": "Fave Bird Mural",
    "lat_long": "34.083455,-118.290132",
    "gmap_link": "https://www.google.com/maps/place/34.083455,-118.290132"
  },
  "FRPA": {
    "city_state": "EAST HOLLYWOOD",
    "gym_code": "FRPA",
    "gym_name": "Franklin Palace",
    "lat_long": "34.105582,-118.301845",
    "gmap_link": "https://www.google.com/maps/place/34.105582,-118.301845"
  },
  "GOSPMU": {
    "city_state": "EAST HOLLYWOOD",
    "gym_code": "GOSPMU",
    "gym_name": "Go Speed Mural",
    "lat_long": "34.095309,-118.30003",
    "gmap_link": "https://www.google.com/maps/place/34.095309,-118.30003"
  },
  "HAME": {
    "city_state": "EAST HOLLYWOOD",
    "gym_code": "HAME",
    "gym_name": "Handy Men",
    "lat_long": "34.083637,-118.300138",
    "gmap_link": "https://www.google.com/maps/place/34.083637,-118.300138"
  },
  "HEMU": {
    "city_state": "EAST HOLLYWOOD",
    "gym_code": "HEMU",
    "gym_name": "Heartnosed Murals",
    "lat_long": "34.083516,-118.284572",
    "gmap_link": "https://www.google.com/maps/place/34.083516,-118.284572"
  },
  "LAREDE": {
    "city_state": "EAST HOLLYWOOD",
    "gym_code": "LAREDE",
    "gym_name": "La Reina de Thai Town",
    "lat_long": "34.101464,-118.313553",
    "gmap_link": "https://www.google.com/maps/place/34.101464,-118.313553"
  },
  "LACATH": {
    "city_state": "EAST HOLLYWOOD",
    "gym_code": "LACATH",
    "gym_name": "Lacc Camino Theatre",
    "lat_long": "34.087104,-118.293973",
    "gmap_link": "https://www.google.com/maps/place/34.087104,-118.293973"
  },
  "LEGRRE": {
    "city_state": "EAST HOLLYWOOD",
    "gym_code": "LEGRRE",
    "gym_name": "Lemon Grove Rec Center",
    "lat_long": "34.086319,-118.305024",
    "gmap_link": "https://www.google.com/maps/place/34.086319,-118.305024"
  },
  "MALUKI": {
    "city_state": "EAST HOLLYWOOD",
    "gym_code": "MALUKI",
    "gym_name": "Martin luther King Jr Library",
    "lat_long": "34.089173,-118.292896",
    "gmap_link": "https://www.google.com/maps/place/34.089173,-118.292896"
  },
  "PIEL": {
    "city_state": "EAST HOLLYWOOD",
    "gym_code": "PIEL",
    "gym_name": "Pink Elephant",
    "lat_long": "34.104667,-118.309156",
    "gmap_link": "https://www.google.com/maps/place/34.104667,-118.309156"
  },
  "RELIME": {
    "city_state": "EAST HOLLYWOOD",
    "gym_code": "RELIME",
    "gym_name": "Red Line Metro Link Sunset and Vermont",
    "lat_long": "34.09835,-118.291425",
    "gmap_link": "https://www.google.com/maps/place/34.09835,-118.291425"
  },
  "RIONMU": {
    "city_state": "EAST HOLLYWOOD",
    "gym_code": "RIONMU",
    "gym_name": "Ride on Mural",
    "lat_long": "34.083834,-118.295046",
    "gmap_link": "https://www.google.com/maps/place/34.083834,-118.295046"
  },
  "ROUNME": {
    "city_state": "EAST HOLLYWOOD",
    "gym_code": "ROUNME",
    "gym_name": "Rosewood United Methodist Church.",
    "lat_long": "34.079196,-118.293026",
    "gmap_link": "https://www.google.com/maps/place/34.079196,-118.293026"
  },
  "SC": {
    "city_state": "EAST HOLLYWOOD",
    "gym_code": "SC",
    "gym_name": "Scientology",
    "lat_long": "34.095583,-118.294472",
    "gmap_link": "https://www.google.com/maps/place/34.095583,-118.294472"
  },
  "SERE": {
    "city_state": "EAST HOLLYWOOD",
    "gym_code": "SERE",
    "gym_name": "Seeing Red",
    "lat_long": "34.083442,-118.304096",
    "gmap_link": "https://www.google.com/maps/place/34.083442,-118.304096"
  },
  "SPSUWE": {
    "city_state": "EAST HOLLYWOOD",
    "gym_code": "SPSUWE",
    "gym_name": "Sprint Sunset Western",
    "lat_long": "34.098343,-118.310579",
    "gmap_link": "https://www.google.com/maps/place/34.098343,-118.310579"
  },
  "THCO": {
    "city_state": "EAST HOLLYWOOD",
    "gym_code": "THCO",
    "gym_name": "The Compassi",
    "lat_long": "34.084937,-118.308969",
    "gmap_link": "https://www.google.com/maps/place/34.084937,-118.308969"
  },
  "THKNWH": {
    "city_state": "EAST HOLLYWOOD",
    "gym_code": "THKNWH",
    "gym_name": "The Know Where Mural",
    "lat_long": "34.101582,-118.312687",
    "gmap_link": "https://www.google.com/maps/place/34.101582,-118.312687"
  },
  "THVITH": {
    "city_state": "EAST HOLLYWOOD",
    "gym_code": "THVITH",
    "gym_name": "The Vista Theatre",
    "lat_long": "34.098245,-118.286969",
    "gmap_link": "https://www.google.com/maps/place/34.098245,-118.286969"
  },
  "THWEAR": {
    "city_state": "EAST HOLLYWOOD",
    "gym_code": "THWEAR",
    "gym_name": "The Weird Art Mural",
    "lat_long": "34.090657,-118.295065",
    "gmap_link": "https://www.google.com/maps/place/34.090657,-118.295065"
  },
  "BAKURE": {
    "city_state": "ECHO PARK",
    "gym_code": "BAKURE",
    "gym_name": "Bahay Kubo Restaurant",
    "lat_long": "34.071292,-118.271721",
    "gmap_link": "https://www.google.com/maps/place/34.071292,-118.271721"
  },
  "BAMUEC": {
    "city_state": "ECHO PARK",
    "gym_code": "BAMUEC",
    "gym_name": "Bahia Mural Echo Park",
    "lat_long": "34.065934,-118.249623",
    "gmap_link": "https://www.google.com/maps/place/34.065934,-118.249623"
  },
  "BLCOMU": {
    "city_state": "ECHO PARK",
    "gym_code": "BLCOMU",
    "gym_name": "Blue Collar Mural",
    "lat_long": "34.080708,-118.255003",
    "gmap_link": "https://www.google.com/maps/place/34.080708,-118.255003"
  },
  "CHCAMU": {
    "city_state": "ECHO PARK",
    "gym_code": "CHCAMU",
    "gym_name": "Chango's Cafe Mural",
    "lat_long": "34.081441,-118.254731",
    "gmap_link": "https://www.google.com/maps/place/34.081441,-118.254731"
  },
  "CHCHEC": {
    "city_state": "ECHO PARK",
    "gym_code": "CHCHEC",
    "gym_name": "Church-of Christ Echo Park",
    "lat_long": "34.065818,-118.265252",
    "gmap_link": "https://www.google.com/maps/place/34.065818,-118.265252"
  },
  "ECLA1": {
    "city_state": "ECHO PARK",
    "gym_code": "ECLA1",
    "gym_name": "Echo-Park Lake 1",
    "lat_long": "34.073217,-118.259711",
    "gmap_link": "https://www.google.com/maps/place/34.073217,-118.259711"
  },
  "ECLA2": {
    "city_state": "ECHO PARK",
    "gym_code": "ECLA2",
    "gym_name": "Echo-Park Lake 2",
    "lat_long": "34.075523,-118.260465",
    "gmap_link": "https://www.google.com/maps/place/34.075523,-118.260465"
  },
  "ECPALI": {
    "city_state": "ECHO PARK",
    "gym_code": "ECPALI",
    "gym_name": "Echo Park Library",
    "lat_long": "34.067116,-118.257208",
    "gmap_link": "https://www.google.com/maps/place/34.067116,-118.257208"
  },
  "ECPAME": {
    "city_state": "ECHO PARK",
    "gym_code": "ECPAME",
    "gym_name": "Echo Park Mermaid Mural",
    "lat_long": "34.075804,-118.254073",
    "gmap_link": "https://www.google.com/maps/place/34.075804,-118.254073"
  },
  "EDPOOF": {
    "city_state": "ECHO PARK",
    "gym_code": "EDPOOF",
    "gym_name": "Edendale Post Office",
    "lat_long": "34.082834,-118.260444",
    "gmap_link": "https://www.google.com/maps/place/34.082834,-118.260444"
  },
  "FAOFEC": {
    "city_state": "ECHO PARK",
    "gym_code": "FAOFEC",
    "gym_name": "Fashion of Echo Park Mural",
    "lat_long": "34.076612,-118.257568",
    "gmap_link": "https://www.google.com/maps/place/34.076612,-118.257568"
  },
  "FRMU": {
    "city_state": "ECHO PARK",
    "gym_code": "FRMU",
    "gym_name": "Friends Mural",
    "lat_long": "34.089574,-118.24986",
    "gmap_link": "https://www.google.com/maps/place/34.089574,-118.24986"
  },
  "GROFEC": {
    "city_state": "ECHO PARK",
    "gym_code": "GROFEC",
    "gym_name": "Grandma of Echo Park",
    "lat_long": "34.075393,-118.253843",
    "gmap_link": "https://www.google.com/maps/place/34.075393,-118.253843"
  },
  "HOOFME": {
    "city_state": "ECHO PARK",
    "gym_code": "HOOFME",
    "gym_name": "House Of Mercy",
    "lat_long": "34.074954,-118.264963",
    "gmap_link": "https://www.google.com/maps/place/34.074954,-118.264963"
  },
  "KNTH": {
    "city_state": "ECHO PARK",
    "gym_code": "KNTH",
    "gym_name": "Knightsbridge Theater",
    "lat_long": "34.098048,-118.247955",
    "gmap_link": "https://www.google.com/maps/place/34.098048,-118.247955"
  },
  "LAOFTH": {
    "city_state": "ECHO PARK",
    "gym_code": "LAOFTH",
    "gym_name": "Lady of the Lake",
    "lat_long": "34.074312,-118.260751",
    "gmap_link": "https://www.google.com/maps/place/34.074312,-118.260751"
  },
  "MAISRE": {
    "city_state": "ECHO PARK",
    "gym_code": "MAISRE",
    "gym_name": "Magic Is Real!",
    "lat_long": "34.085317,-118.260374",
    "gmap_link": "https://www.google.com/maps/place/34.085317,-118.260374"
  },
  "PRST": {
    "city_state": "ECHO PARK",
    "gym_code": "PRST",
    "gym_name": "Protectors Statue",
    "lat_long": "34.080638,-118.245396",
    "gmap_link": "https://www.google.com/maps/place/34.080638,-118.245396"
  },
  "SCAVCO": {
    "city_state": "ECHO PARK",
    "gym_code": "SCAVCO",
    "gym_name": "Scott Avenue Court",
    "lat_long": "34.078814,-118.252622",
    "gmap_link": "https://www.google.com/maps/place/34.078814,-118.252622"
  },
  "ST": {
    "city_state": "ECHO PARK",
    "gym_code": "ST",
    "gym_name": "SteponIt--Est.1892",
    "lat_long": "34.07048,-118.260102",
    "gmap_link": "https://www.google.com/maps/place/34.07048,-118.260102"
  },
  "STAREC": {
    "city_state": "ECHO PARK",
    "gym_code": "STAREC",
    "gym_name": "Street Art Echo Park",
    "lat_long": "34.085976,-118.260151",
    "gmap_link": "https://www.google.com/maps/place/34.085976,-118.260151"
  },
  "STAR3": {
    "city_state": "ECHO PARK",
    "gym_code": "STAR3",
    "gym_name": "Street Art 3",
    "lat_long": "34.077832,-118.265353",
    "gmap_link": "https://www.google.com/maps/place/34.077832,-118.265353"
  },
  "TAARMU": {
    "city_state": "ECHO PARK",
    "gym_code": "TAARMU",
    "gym_name": "Tattoo Art Mural",
    "lat_long": "34.06874,-118.250496",
    "gmap_link": "https://www.google.com/maps/place/34.06874,-118.250496"
  },
  "THUNON": {
    "city_state": "ECHO PARK",
    "gym_code": "THUNON",
    "gym_name": "The Unicorn on Sunset",
    "lat_long": "34.073128,-118.251236",
    "gmap_link": "https://www.google.com/maps/place/34.073128,-118.251236"
  },
  "TITRMA": {
    "city_state": "ECHO PARK",
    "gym_code": "TITRMA",
    "gym_name": "Time Travel Mart",
    "lat_long": "34.077366,-118.259058",
    "gmap_link": "https://www.google.com/maps/place/34.077366,-118.259058"
  },
  "BIBLFI": {
    "city_state": "ELYSIAN PARK",
    "gym_code": "BIBLFI",
    "gym_name": "Big Blue Finger",
    "lat_long": "34.075729,-118.240804",
    "gmap_link": "https://www.google.com/maps/place/34.075729,-118.240804"
  },
  "CETR": {
    "city_state": "ELYSIAN PARK",
    "gym_code": "CETR",
    "gym_name": "Ceramic Tree",
    "lat_long": "34.075038,-118.231711",
    "gmap_link": "https://www.google.com/maps/place/34.075038,-118.231711"
  },
  "DOST1": {
    "city_state": "ELYSIAN PARK",
    "gym_code": "DOST1",
    "gym_name": "Dodger Stadium 1",
    "lat_long": "34.07248,-118.240822",
    "gmap_link": "https://www.google.com/maps/place/34.07248,-118.240822"
  },
  "DOST2": {
    "city_state": "ELYSIAN PARK",
    "gym_code": "DOST2",
    "gym_name": "Dodger Stadium 2",
    "lat_long": "34.074462,-118.239572",
    "gmap_link": "https://www.google.com/maps/place/34.074462,-118.239572"
  },
  "DOST3": {
    "city_state": "ELYSIAN PARK",
    "gym_code": "DOST3",
    "gym_name": "Dodger Stadium 3",
    "lat_long": "34.072238,-118.24669",
    "gmap_link": "https://www.google.com/maps/place/34.072238,-118.24669"
  },
  "LARIEG": {
    "city_state": "ELYSIAN PARK",
    "gym_code": "LARIEG",
    "gym_name": "LA River Egret Park",
    "lat_long": "34.08402,-118.228294",
    "gmap_link": "https://www.google.com/maps/place/34.08402,-118.228294"
  },
  "MAMEGR": {
    "city_state": "ELYSIAN PARK",
    "gym_code": "MAMEGR",
    "gym_name": "Marian Memorial Grove Park",
    "lat_long": "34.086228,-118.245134",
    "gmap_link": "https://www.google.com/maps/place/34.086228,-118.245134"
  },
  "HACL": {
    "city_state": "FAIRCREST HEIGHTS",
    "gym_code": "HACL",
    "gym_name": "Hauser Clock",
    "lat_long": "34.048496,-118.35719",
    "gmap_link": "https://www.google.com/maps/place/34.048496,-118.35719"
  },
  "ETJATO": {
    "city_state": "FAIRFAX",
    "gym_code": "ETJATO",
    "gym_name": "Etz Jacob Torah Center",
    "lat_long": "34.076246,-118.35677",
    "gmap_link": "https://www.google.com/maps/place/34.076246,-118.35677"
  },
  "LABRSK": {
    "city_state": "FAIRFAX",
    "gym_code": "LABRSK",
    "gym_name": "La Brea Skull Mural",
    "lat_long": "34.080855,-118.343881",
    "gmap_link": "https://www.google.com/maps/place/34.080855,-118.343881"
  },
  "PEPA": {
    "city_state": "FAIRFAX",
    "gym_code": "PEPA",
    "gym_name": "Petit Palace",
    "lat_long": "34.076281,-118.351734",
    "gmap_link": "https://www.google.com/maps/place/34.076281,-118.351734"
  },
  "RAWIBO": {
    "city_state": "FAIRFAX",
    "gym_code": "RAWIBO",
    "gym_name": "Ralph Wiggum Box",
    "lat_long": "34.083644,-118.345116",
    "gmap_link": "https://www.google.com/maps/place/34.083644,-118.345116"
  },
  "TAGAMU": {
    "city_state": "FAIRFAX",
    "gym_code": "TAGAMU",
    "gym_name": "TASCHEN Gallery Mural",
    "lat_long": "34.075717,-118.365767",
    "gmap_link": "https://www.google.com/maps/place/34.075717,-118.365767"
  },
  "TEFA": {
    "city_state": "FAIRFAX",
    "gym_code": "TEFA",
    "gym_name": "Tewsrism Fairfax",
    "lat_long": "34.083465,-118.364391",
    "gmap_link": "https://www.google.com/maps/place/34.083465,-118.364391"
  },
  "THSIMO": {
    "city_state": "FAIRFAX",
    "gym_code": "THSIMO",
    "gym_name": "The Silent Movie Theatre",
    "lat_long": "34.082028,-118.361578",
    "gmap_link": "https://www.google.com/maps/place/34.082028,-118.361578"
  },
  "UNPEMU": {
    "city_state": "FAIRFAX",
    "gym_code": "UNPEMU",
    "gym_name": "Uncle Pennybags Mural",
    "lat_long": "34.083795,-118.35436",
    "gmap_link": "https://www.google.com/maps/place/34.083795,-118.35436"
  },
  "WHTHWI": {
    "city_state": "FAIRFAX",
    "gym_code": "WHTHWI",
    "gym_name": "Where the Wild Things Are",
    "lat_long": "34.083874,-118.356291",
    "gmap_link": "https://www.google.com/maps/place/34.083874,-118.356291"
  },
  "WOMAST": {
    "city_state": "FAIRFAX",
    "gym_code": "WOMAST",
    "gym_name": "Working Man Statue",
    "lat_long": "34.076303,-118.361212",
    "gmap_link": "https://www.google.com/maps/place/34.076303,-118.361212"
  },
  "A.ROBU": {
    "city_state": "GREATER WILSHIRE",
    "gym_code": "A.ROBU",
    "gym_name": "A.W. Ross Bust",
    "lat_long": "34.06265,-118.354688",
    "gmap_link": "https://www.google.com/maps/place/34.06265,-118.354688"
  },
  "BA": {
    "city_state": "GREATER WILSHIRE",
    "gym_code": "BA",
    "gym_name": "Babycakes",
    "lat_long": "34.075711,-118.323513",
    "gmap_link": "https://www.google.com/maps/place/34.075711,-118.323513"
  },
  "CACHOF": {
    "city_state": "GREATER WILSHIRE",
    "gym_code": "CACHOF",
    "gym_name": "Cathedral Chapel of St. Vibiana",
    "lat_long": "34.057984,-118.345874",
    "gmap_link": "https://www.google.com/maps/place/34.057984,-118.345874"
  },
  "DEFO6": {
    "city_state": "GREATER WILSHIRE",
    "gym_code": "DEFO6",
    "gym_name": "Dehydrated Fountain 6",
    "lat_long": "34.075062,-118.309356",
    "gmap_link": "https://www.google.com/maps/place/34.075062,-118.309356"
  },
  "ELRO": {
    "city_state": "GREATER WILSHIRE",
    "gym_code": "ELRO",
    "gym_name": "El Royale",
    "lat_long": "34.078711,-118.327061",
    "gmap_link": "https://www.google.com/maps/place/34.078711,-118.327061"
  },
  "FOPRCH": {
    "city_state": "GREATER WILSHIRE",
    "gym_code": "FOPRCH",
    "gym_name": "Formosan Presbyterian Church in LA",
    "lat_long": "34.057348,-118.34301",
    "gmap_link": "https://www.google.com/maps/place/34.057348,-118.34301"
  },
  "FRMAMU": {
    "city_state": "GREATER WILSHIRE",
    "gym_code": "FRMAMU",
    "gym_name": "Free Man Mural",
    "lat_long": "34.07393,-118.3442",
    "gmap_link": "https://www.google.com/maps/place/34.07393,-118.3442"
  },
  "FRKAMU": {
    "city_state": "GREATER WILSHIRE",
    "gym_code": "FRKAMU",
    "gym_name": "Frida Kahlo Mural",
    "lat_long": "34.083353,-118.313653",
    "gmap_link": "https://www.google.com/maps/place/34.083353,-118.313653"
  },
  "GA19": {
    "city_state": "GREATER WILSHIRE",
    "gym_code": "GA19",
    "gym_name": "Gallery 1988",
    "lat_long": "34.083325,-118.343596",
    "gmap_link": "https://www.google.com/maps/place/34.083325,-118.343596"
  },
  "GA19(W": {
    "city_state": "GREATER WILSHIRE",
    "gym_code": "GA19(W",
    "gym_name": "Gallery 1988 (West)",
    "lat_long": "34.083428,-118.34897",
    "gmap_link": "https://www.google.com/maps/place/34.083428,-118.34897"
  },
  "IGDEDI": {
    "city_state": "GREATER WILSHIRE",
    "gym_code": "IGDEDI",
    "gym_name": "Iglesias De Dios",
    "lat_long": "34.083597,-118.328679",
    "gmap_link": "https://www.google.com/maps/place/34.083597,-118.328679"
  },
  "LAVICL": {
    "city_state": "GREATER WILSHIRE",
    "gym_code": "LAVICL",
    "gym_name": "Larchmont Village Clock",
    "lat_long": "34.075017,-118.323811",
    "gmap_link": "https://www.google.com/maps/place/34.075017,-118.323811"
  },
  "LICOGR": {
    "city_state": "GREATER WILSHIRE",
    "gym_code": "LICOGR",
    "gym_name": "Living Color Graphic",
    "lat_long": "34.084797,-118.328665",
    "gmap_link": "https://www.google.com/maps/place/34.084797,-118.328665"
  },
  "LUELAD": {
    "city_state": "GREATER WILSHIRE",
    "gym_code": "LUELAD",
    "gym_name": "Lucy's El Adobe Fountain",
    "lat_long": "34.083169,-118.32108",
    "gmap_link": "https://www.google.com/maps/place/34.083169,-118.32108"
  },
  "PAPIEN": {
    "city_state": "GREATER WILSHIRE",
    "gym_code": "PAPIEN",
    "gym_name": "Paramount Pictures entrance M",
    "lat_long": "34.083724,-118.319563",
    "gmap_link": "https://www.google.com/maps/place/34.083724,-118.319563"
  },
  "PAST5": {
    "city_state": "GREATER WILSHIRE",
    "gym_code": "PAST5",
    "gym_name": "Paramount Stage 5",
    "lat_long": "34.085288,-118.317923",
    "gmap_link": "https://www.google.com/maps/place/34.085288,-118.317923"
  },
  "TEBEZI": {
    "city_state": "GREATER WILSHIRE",
    "gym_code": "TEBEZI",
    "gym_name": "Temple Beth Zion",
    "lat_long": "34.057492,-118.350684",
    "gmap_link": "https://www.google.com/maps/place/34.057492,-118.350684"
  },
  "BEENGR": {
    "city_state": "GRIFFITH PARK",
    "gym_code": "BEENGR",
    "gym_name": "Bear Entrance' Griffith Park",
    "lat_long": "34.10831,-118.307627",
    "gmap_link": "https://www.google.com/maps/place/34.10831,-118.307627"
  },
  "GR-TR": {
    "city_state": "GRIFFITH PARK",
    "gym_code": "GR-TR",
    "gym_name": "Griffith - Tregnan Golf Academy",
    "lat_long": "34.121983,-118.274822",
    "gmap_link": "https://www.google.com/maps/place/34.121983,-118.274822"
  },
  "GRPA&": {
    "city_state": "GRIFFITH PARK",
    "gym_code": "GRPA&",
    "gym_name": "Griffith Park & Southern R.R.",
    "lat_long": "34.119165,-118.272202",
    "gmap_link": "https://www.google.com/maps/place/34.119165,-118.272202"
  },
  "GRPAWA": {
    "city_state": "GRIFFITH PARK",
    "gym_code": "GRPAWA",
    "gym_name": "Griffith Park Water Stop",
    "lat_long": "34.125682,-118.281864",
    "gmap_link": "https://www.google.com/maps/place/34.125682,-118.281864"
  },
  "HETR": {
    "city_state": "GRIFFITH PARK",
    "gym_code": "HETR",
    "gym_name": "Henry's Trail",
    "lat_long": "34.125845,-118.28865",
    "gmap_link": "https://www.google.com/maps/place/34.125845,-118.28865"
  },
  "ROGOCO": {
    "city_state": "GRIFFITH PARK",
    "gym_code": "ROGOCO",
    "gym_name": "Roosevelt Golf Course",
    "lat_long": "34.118344,-118.294072",
    "gmap_link": "https://www.google.com/maps/place/34.118344,-118.294072"
  },
  "STOFGR": {
    "city_state": "GRIFFITH PARK",
    "gym_code": "STOFGR",
    "gym_name": "Statue of Griffith",
    "lat_long": "34.117717,-118.271942",
    "gmap_link": "https://www.google.com/maps/place/34.117717,-118.271942"
  },
  "VIFRGR": {
    "city_state": "GRIFFITH PARK",
    "gym_code": "VIFRGR",
    "gym_name": "View from Griffith Observatory",
    "lat_long": "34.120678,-118.300518",
    "gmap_link": "https://www.google.com/maps/place/34.120678,-118.300518"
  },
  "AMMUHO": {
    "city_state": "HOLLYWOOD",
    "gym_code": "AMMUHO",
    "gym_name": "Amoeba Music Hollywood",
    "lat_long": "34.097856,-118.328955",
    "gmap_link": "https://www.google.com/maps/place/34.097856,-118.328955"
  },
  "ATTA": {
    "city_state": "HOLLYWOOD",
    "gym_code": "ATTA",
    "gym_name": "Atomic Tattoo",
    "lat_long": "34.101788,-118.31811",
    "gmap_link": "https://www.google.com/maps/place/34.101788,-118.31811"
  },
  "BAALAR": {
    "city_state": "HOLLYWOOD",
    "gym_code": "BAALAR",
    "gym_name": "Back Alley Art Wall",
    "lat_long": "34.09763,-118.353403",
    "gmap_link": "https://www.google.com/maps/place/34.09763,-118.353403"
  },
  "BEINTH": {
    "city_state": "HOLLYWOOD",
    "gym_code": "BEINTH",
    "gym_name": "Beauty in this Block",
    "lat_long": "34.090537,-118.301961",
    "gmap_link": "https://www.google.com/maps/place/34.090537,-118.301961"
  },
  "BIBLPE": {
    "city_state": "HOLLYWOOD",
    "gym_code": "BIBLPE",
    "gym_name": "Big Blue Peacock",
    "lat_long": "34.101527,-118.315319",
    "gmap_link": "https://www.google.com/maps/place/34.101527,-118.315319"
  },
  "BILIMU": {
    "city_state": "HOLLYWOOD",
    "gym_code": "BILIMU",
    "gym_name": "Bill's Liquor Mural",
    "lat_long": "34.097868,-118.306977",
    "gmap_link": "https://www.google.com/maps/place/34.097868,-118.306977"
  },
  "BLYEAN": {
    "city_state": "HOLLYWOOD",
    "gym_code": "BLYEAN",
    "gym_name": "Blue Yellow and Red Shoes",
    "lat_long": "34.101226,-118.332583",
    "gmap_link": "https://www.google.com/maps/place/34.101226,-118.332583"
  },
  "BRSIMU": {
    "city_state": "HOLLYWOOD",
    "gym_code": "BRSIMU",
    "gym_name": "Brother Sister Mural",
    "lat_long": "34.0972,-118.329726",
    "gmap_link": "https://www.google.com/maps/place/34.0972,-118.329726"
  },
  "BUHO": {
    "city_state": "HOLLYWOOD",
    "gym_code": "BUHO",
    "gym_name": "Buddha Hollywood",
    "lat_long": "34.090283,-118.328242",
    "gmap_link": "https://www.google.com/maps/place/34.090283,-118.328242"
  },
  "CARE": {
    "city_state": "HOLLYWOOD",
    "gym_code": "CARE",
    "gym_name": "Capitol Records",
    "lat_long": "34.102858,-118.326498",
    "gmap_link": "https://www.google.com/maps/place/34.102858,-118.326498"
  },
  "CEGA": {
    "city_state": "HOLLYWOOD",
    "gym_code": "CEGA",
    "gym_name": "Centennial Garden",
    "lat_long": "34.094332,-118.334159",
    "gmap_link": "https://www.google.com/maps/place/34.094332,-118.334159"
  },
  "CHFONO": {
    "city_state": "HOLLYWOOD",
    "gym_code": "CHFONO",
    "gym_name": "Chow For Now",
    "lat_long": "34.090983,-118.332438",
    "gmap_link": "https://www.google.com/maps/place/34.090983,-118.332438"
  },
  "DADI": {
    "city_state": "HOLLYWOOD",
    "gym_code": "DADI",
    "gym_name": "Daycare Dino",
    "lat_long": "34.094887,-118.311934",
    "gmap_link": "https://www.google.com/maps/place/34.094887,-118.311934"
  },
  "DRSE": {
    "city_state": "HOLLYWOOD",
    "gym_code": "DRSE",
    "gym_name": "Dr. Seuss",
    "lat_long": "34.101481,-118.333793",
    "gmap_link": "https://www.google.com/maps/place/34.101481,-118.333793"
  },
  "DRGA": {
    "city_state": "HOLLYWOOD",
    "gym_code": "DRGA",
    "gym_name": "Dream Garden",
    "lat_long": "34.098115,-118.337786",
    "gmap_link": "https://www.google.com/maps/place/34.098115,-118.337786"
  },
  "ELRETH": {
    "city_state": "HOLLYWOOD",
    "gym_code": "ELRETH",
    "gym_name": "El Rey Theatre",
    "lat_long": "34.062446,-118.348875",
    "gmap_link": "https://www.google.com/maps/place/34.062446,-118.348875"
  },
  "ELATHO": {
    "city_state": "HOLLYWOOD",
    "gym_code": "ELATHO",
    "gym_name": "Elephant at Hollywood & Highland",
    "lat_long": "34.10217,-118.339335",
    "gmap_link": "https://www.google.com/maps/place/34.10217,-118.339335"
  },
  "FIPRHO": {
    "city_state": "HOLLYWOOD",
    "gym_code": "FIPRHO",
    "gym_name": "First Presbyterian-Church Hollywood",
    "lat_long": "34.103504,-118.322282",
    "gmap_link": "https://www.google.com/maps/place/34.103504,-118.322282"
  },
  "FOLAOF": {
    "city_state": "HOLLYWOOD",
    "gym_code": "FOLAOF",
    "gym_name": "Four Ladies of Hollywood",
    "lat_long": "34.101409,-118.344982",
    "gmap_link": "https://www.google.com/maps/place/34.101409,-118.344982"
  },
  "GAMU": {
    "city_state": "HOLLYWOOD",
    "gym_code": "GAMU",
    "gym_name": "Ganesha Mural",
    "lat_long": "34.083629,-118.34791",
    "gmap_link": "https://www.google.com/maps/place/34.083629,-118.34791"
  },
  "GOBR": {
    "city_state": "HOLLYWOOD",
    "gym_code": "GOBR",
    "gym_name": "Golden Bridge",
    "lat_long": "34.096087,-118.338798",
    "gmap_link": "https://www.google.com/maps/place/34.096087,-118.338798"
  },
  "GUNRO": {
    "city_state": "HOLLYWOOD",
    "gym_code": "GUNRO",
    "gym_name": "Guns 'N Roses Mural",
    "lat_long": "34.098353,-118.345841",
    "gmap_link": "https://www.google.com/maps/place/34.098353,-118.345841"
  },
  "HIRO": {
    "city_state": "HOLLYWOOD",
    "gym_code": "HIRO",
    "gym_name": "Hippy Rocks",
    "lat_long": "34.097813,-118.346942",
    "gmap_link": "https://www.google.com/maps/place/34.097813,-118.346942"
  },
  "HIHOCL": {
    "city_state": "HOLLYWOOD",
    "gym_code": "HIHOCL",
    "gym_name": "Historical Hollywood Clock tower",
    "lat_long": "34.090615,-118.328818",
    "gmap_link": "https://www.google.com/maps/place/34.090615,-118.328818"
  },
  "HO-PO": {
    "city_state": "HOLLYWOOD",
    "gym_code": "HO-PO",
    "gym_name": "Hollywood - Power to Inspire Sculpture",
    "lat_long": "34.094484,-118.338468",
    "gmap_link": "https://www.google.com/maps/place/34.094484,-118.338468"
  },
  "HOAPMU": {
    "city_state": "HOLLYWOOD",
    "gym_code": "HOAPMU",
    "gym_name": "Hollywood Apocalypse Mural",
    "lat_long": "34.072035,-118.250576",
    "gmap_link": "https://www.google.com/maps/place/34.072035,-118.250576"
  },
  "HOHOFO": {
    "city_state": "HOLLYWOOD",
    "gym_code": "HOHOFO",
    "gym_name": "Hollywood hotel fountain",
    "lat_long": "34.092906,-118.291012",
    "gmap_link": "https://www.google.com/maps/place/34.092906,-118.291012"
  },
  "HOIC": {
    "city_state": "HOLLYWOOD",
    "gym_code": "HOIC",
    "gym_name": "Hollywood Icons",
    "lat_long": "34.090428,-118.313012",
    "gmap_link": "https://www.google.com/maps/place/34.090428,-118.313012"
  },
  "HOIM": {
    "city_state": "HOLLYWOOD",
    "gym_code": "HOIM",
    "gym_name": "Hollywood Improv",
    "lat_long": "34.083585,-118.367324",
    "gmap_link": "https://www.google.com/maps/place/34.083585,-118.367324"
  },
  "HOROHO": {
    "city_state": "HOLLYWOOD",
    "gym_code": "HOROHO",
    "gym_name": "Hollywood Roosevelt Hotel",
    "lat_long": "34.101387,-118.341805",
    "gmap_link": "https://www.google.com/maps/place/34.101387,-118.341805"
  },
  "HOSIHO": {
    "city_state": "HOLLYWOOD",
    "gym_code": "HOSIHO",
    "gym_name": "Hollywood Sign Hollywood",
    "lat_long": "34.097211,-118.338539",
    "gmap_link": "https://www.google.com/maps/place/34.097211,-118.338539"
  },
  "HOSIFR": {
    "city_state": "HOLLYWOOD",
    "gym_code": "HOSIFR",
    "gym_name": "Hollywood sign From Mulholland Dr",
    "lat_long": "34.116457,-118.342109",
    "gmap_link": "https://www.google.com/maps/place/34.116457,-118.342109"
  },
  "HOSION": {
    "city_state": "HOLLYWOOD",
    "gym_code": "HOSION",
    "gym_name": "Hollywood Sign on Wilcox",
    "lat_long": "34.105559,-118.330766",
    "gmap_link": "https://www.google.com/maps/place/34.105559,-118.330766"
  },
  "HOSTCO": {
    "city_state": "HOLLYWOOD",
    "gym_code": "HOSTCO",
    "gym_name": "Hollywood Storage Co. Building",
    "lat_long": "34.089718,-118.338736",
    "gmap_link": "https://www.google.com/maps/place/34.089718,-118.338736"
  },
  "HOTO": {
    "city_state": "HOLLYWOOD",
    "gym_code": "HOTO",
    "gym_name": "Hollywood Tower",
    "lat_long": "34.105134,-118.324133",
    "gmap_link": "https://www.google.com/maps/place/34.105134,-118.324133"
  },
  "HOUNME": {
    "city_state": "HOLLYWOOD",
    "gym_code": "HOUNME",
    "gym_name": "Hollywood United Methodist Church",
    "lat_long": "34.104273,-118.338826",
    "gmap_link": "https://www.google.com/maps/place/34.104273,-118.338826"
  },
  "HOTRRU": {
    "city_state": "HOLLYWOOD",
    "gym_code": "HOTRRU",
    "gym_name": "Holy Transfiguration Russian Orthodox Church",
    "lat_long": "34.095178,-118.308135",
    "gmap_link": "https://www.google.com/maps/place/34.095178,-118.308135"
  },
  "HYBOMO": {
    "city_state": "HOLLYWOOD",
    "gym_code": "HYBOMO",
    "gym_name": "Hypnotic Bogie Monster",
    "lat_long": "34.083646,-118.326303",
    "gmap_link": "https://www.google.com/maps/place/34.083646,-118.326303"
  },
  "JORAME": {
    "city_state": "HOLLYWOOD",
    "gym_code": "JORAME",
    "gym_name": "Johnny Ramone Memorial",
    "lat_long": "34.088574,-118.317129",
    "gmap_link": "https://www.google.com/maps/place/34.088574,-118.317129"
  },
  "KETHFR": {
    "city_state": "HOLLYWOOD",
    "gym_code": "KETHFR",
    "gym_name": "Kermit the Frog",
    "lat_long": "34.101659,-118.339257",
    "gmap_link": "https://www.google.com/maps/place/34.101659,-118.339257"
  },
  "L<HEMU": {
    "city_state": "HOLLYWOOD",
    "gym_code": "L<HEMU",
    "gym_name": "L<3VE Heart Mural",
    "lat_long": "34.090896,-118.319976",
    "gmap_link": "https://www.google.com/maps/place/34.090896,-118.319976"
  },
  "LOANFI": {
    "city_state": "HOLLYWOOD",
    "gym_code": "LOANFI",
    "gym_name": "Los Angeles Fire Department",
    "lat_long": "34.10188,-118.315638",
    "gmap_link": "https://www.google.com/maps/place/34.10188,-118.315638"
  },
  "MAAP": {
    "city_state": "HOLLYWOOD",
    "gym_code": "MAAP",
    "gym_name": "Mayfair Apartments",
    "lat_long": "34.103513,-118.330936",
    "gmap_link": "https://www.google.com/maps/place/34.103513,-118.330936"
  },
  "PATH": {
    "city_state": "HOLLYWOOD",
    "gym_code": "PATH",
    "gym_name": "Pantages Theatre",
    "lat_long": "34.101754,-118.32581",
    "gmap_link": "https://www.google.com/maps/place/34.101754,-118.32581"
  },
  "PIHO": {
    "city_state": "HOLLYWOOD",
    "gym_code": "PIHO",
    "gym_name": "Pink's Hotdogs",
    "lat_long": "34.083847,-118.344195",
    "gmap_link": "https://www.google.com/maps/place/34.083847,-118.344195"
  },
  "POARMU": {
    "city_state": "HOLLYWOOD",
    "gym_code": "POARMU",
    "gym_name": "Pop Art Mural",
    "lat_long": "34.090892,-118.324905",
    "gmap_link": "https://www.google.com/maps/place/34.090892,-118.324905"
  },
  "REPOMO": {
    "city_state": "HOLLYWOOD",
    "gym_code": "REPOMO",
    "gym_name": "Reflecting Pool Monument",
    "lat_long": "34.087968,-118.317244",
    "gmap_link": "https://www.google.com/maps/place/34.087968,-118.317244"
  },
  "ROHOOF": {
    "city_state": "HOLLYWOOD",
    "gym_code": "ROHOOF",
    "gym_name": "Roscoe's House Of Chicken N Waffles - Gower & Sunset",
    "lat_long": "34.098566,-118.322228",
    "gmap_link": "https://www.google.com/maps/place/34.098566,-118.322228"
  },
  "SAKEST": {
    "city_state": "HOLLYWOOD",
    "gym_code": "SAKEST",
    "gym_name": "Saf Keep Storage",
    "lat_long": "34.083298,-118.309001",
    "gmap_link": "https://www.google.com/maps/place/34.083298,-118.309001"
  },
  "SMFO": {
    "city_state": "HOLLYWOOD",
    "gym_code": "SMFO",
    "gym_name": "Small Fountain",
    "lat_long": "34.083347,-118.338357",
    "gmap_link": "https://www.google.com/maps/place/34.083347,-118.338357"
  },
  "SMSH": {
    "city_state": "HOLLYWOOD",
    "gym_code": "SMSH",
    "gym_name": "Smoke Shop",
    "lat_long": "34.097745,-118.318293",
    "gmap_link": "https://www.google.com/maps/place/34.097745,-118.318293"
  },
  "SPFAUT": {
    "city_state": "HOLLYWOOD",
    "gym_code": "SPFAUT",
    "gym_name": "Split Face Utility Box",
    "lat_long": "34.090619,-118.309051",
    "gmap_link": "https://www.google.com/maps/place/34.090619,-118.309051"
  },
  "STFRAN": {
    "city_state": "HOLLYWOOD",
    "gym_code": "STFRAN",
    "gym_name": "Starbucks Franklin and Highland",
    "lat_long": "34.10535,-118.33682",
    "gmap_link": "https://www.google.com/maps/place/34.10535,-118.33682"
  },
  "STSAMO": {
    "city_state": "HOLLYWOOD",
    "gym_code": "STSAMO",
    "gym_name": "Starbucks Santa Monica and La Brea",
    "lat_long": "34.090694,-118.34408",
    "gmap_link": "https://www.google.com/maps/place/34.090694,-118.34408"
  },
  "STOFCH": {
    "city_state": "HOLLYWOOD",
    "gym_code": "STOFCH",
    "gym_name": "Statue of Christ the King",
    "lat_long": "34.082861,-118.326521",
    "gmap_link": "https://www.google.com/maps/place/34.082861,-118.326521"
  },
  "TCCHTH": {
    "city_state": "HOLLYWOOD",
    "gym_code": "TCCHTH",
    "gym_name": "TCL Chinese Theatre",
    "lat_long": "34.101808,-118.340884",
    "gmap_link": "https://www.google.com/maps/place/34.101808,-118.340884"
  },
  "TEISOF": {
    "city_state": "HOLLYWOOD",
    "gym_code": "TEISOF",
    "gym_name": "Temple Israel of Hollywood",
    "lat_long": "34.101525,-118.349294",
    "gmap_link": "https://www.google.com/maps/place/34.101525,-118.349294"
  },
  "THGO": {
    "city_state": "HOLLYWOOD",
    "gym_code": "THGO",
    "gym_name": "Thai Goddess",
    "lat_long": "34.101861,-118.308301",
    "gmap_link": "https://www.google.com/maps/place/34.101861,-118.308301"
  },
  "THARCL": {
    "city_state": "HOLLYWOOD",
    "gym_code": "THARCL",
    "gym_name": "The Arena Club Mural",
    "lat_long": "34.090822,-118.335533",
    "gmap_link": "https://www.google.com/maps/place/34.090822,-118.335533"
  },
  "THARHO": {
    "city_state": "HOLLYWOOD",
    "gym_code": "THARHO",
    "gym_name": "The Argyle Hog",
    "lat_long": "34.099894,-118.325083",
    "gmap_link": "https://www.google.com/maps/place/34.099894,-118.325083"
  },
  "THBUWI": {
    "city_state": "HOLLYWOOD",
    "gym_code": "THBUWI",
    "gym_name": "The Building With Eyelashes",
    "lat_long": "34.090863,-118.344212",
    "gmap_link": "https://www.google.com/maps/place/34.090863,-118.344212"
  },
  "THCIDO": {
    "city_state": "HOLLYWOOD",
    "gym_code": "THCIDO",
    "gym_name": "The Cinerama Dome",
    "lat_long": "34.097904,-118.328097",
    "gmap_link": "https://www.google.com/maps/place/34.097904,-118.328097"
  },
  "THJIHE": {
    "city_state": "HOLLYWOOD",
    "gym_code": "THJIHE",
    "gym_name": "The Jim Henson Company",
    "lat_long": "34.096691,-118.34396",
    "gmap_link": "https://www.google.com/maps/place/34.096691,-118.34396"
  },
  "THLIBO": {
    "city_state": "HOLLYWOOD",
    "gym_code": "THLIBO",
    "gym_name": "The Liverpool Boys",
    "lat_long": "34.090227,-118.313007",
    "gmap_link": "https://www.google.com/maps/place/34.090227,-118.313007"
  },
  "THOI": {
    "city_state": "HOLLYWOOD",
    "gym_code": "THOI",
    "gym_name": "The Oinkster",
    "lat_long": "34.085091,-118.32642",
    "gmap_link": "https://www.google.com/maps/place/34.085091,-118.32642"
  },
  "TOATSU": {
    "city_state": "HOLLYWOOD",
    "gym_code": "TOATSU",
    "gym_name": "Toro at Sunset Blvd",
    "lat_long": "34.098177,-118.326439",
    "gmap_link": "https://www.google.com/maps/place/34.098177,-118.326439"
  },
  "VI": {
    "city_state": "HOLLYWOOD",
    "gym_code": "VI",
    "gym_name": "Village",
    "lat_long": "34.091887,-118.33753",
    "gmap_link": "https://www.google.com/maps/place/34.091887,-118.33753"
  },
  "VISTLI": {
    "city_state": "HOLLYWOOD",
    "gym_code": "VISTLI",
    "gym_name": "Vista Street Library",
    "lat_long": "34.100286,-118.351932",
    "gmap_link": "https://www.google.com/maps/place/34.100286,-118.351932"
  },
  "XMPI": {
    "city_state": "HOLLYWOOD",
    "gym_code": "XMPI",
    "gym_name": "XM Pillar",
    "lat_long": "34.105726,-118.32367",
    "gmap_link": "https://www.google.com/maps/place/34.105726,-118.32367"
  },
  "YABU": {
    "city_state": "HOLLYWOOD",
    "gym_code": "YABU",
    "gym_name": "Yamashiro Buddha",
    "lat_long": "34.105644,-118.342057",
    "gmap_link": "https://www.google.com/maps/place/34.105644,-118.342057"
  },
  "AMLEPO": {
    "city_state": "HOLLYWOOD HILLS",
    "gym_code": "AMLEPO",
    "gym_name": "American Legion Post 43 Court of Honor",
    "lat_long": "34.107738,-118.337533",
    "gmap_link": "https://www.google.com/maps/place/34.107738,-118.337533"
  },
  "BRPA": {
    "city_state": "HOLLYWOOD HILLS",
    "gym_code": "BRPA",
    "gym_name": "Bronson Park",
    "lat_long": "34.120058,-118.31635",
    "gmap_link": "https://www.google.com/maps/place/34.120058,-118.31635"
  },
  "CALITO": {
    "city_state": "HOLLYWOOD HILLS",
    "gym_code": "CALITO",
    "gym_name": "Canyon Lighthouse to Hills",
    "lat_long": "34.10975,-118.316877",
    "gmap_link": "https://www.google.com/maps/place/34.10975,-118.316877"
  },
  "EYELBO": {
    "city_state": "HOLLYWOOD HILLS",
    "gym_code": "EYELBO",
    "gym_name": "Eyes Electric Box",
    "lat_long": "34.106098,-118.3181",
    "gmap_link": "https://www.google.com/maps/place/34.106098,-118.3181"
  },
  "FOAMST": {
    "city_state": "HOLLYWOOD HILLS",
    "gym_code": "FOAMST",
    "gym_name": "Ford Amphitheater Stage",
    "lat_long": "34.114016,-118.334437",
    "gmap_link": "https://www.google.com/maps/place/34.114016,-118.334437"
  },
  "HICAPA": {
    "city_state": "HOLLYWOOD HILLS",
    "gym_code": "HICAPA",
    "gym_name": "Highland Camrose Park",
    "lat_long": "34.109201,-118.336897",
    "gmap_link": "https://www.google.com/maps/place/34.109201,-118.336897"
  },
  "HOSI": {
    "city_state": "HOLLYWOOD HILLS",
    "gym_code": "HOSI",
    "gym_name": "Horse Silhouette",
    "lat_long": "34.116229,-118.321037",
    "gmap_link": "https://www.google.com/maps/place/34.116229,-118.321037"
  },
  "JOANFO": {
    "city_state": "HOLLYWOOD HILLS",
    "gym_code": "JOANFO",
    "gym_name": "John Anson Ford Theater Gateway",
    "lat_long": "34.11445,-118.33547",
    "gmap_link": "https://www.google.com/maps/place/34.11445,-118.33547"
  },
  "RUCALA": {
    "city_state": "HOLLYWOOD HILLS",
    "gym_code": "RUCALA",
    "gym_name": "Runyon Canyon Labyrinth",
    "lat_long": "34.110689,-118.35035",
    "gmap_link": "https://www.google.com/maps/place/34.110689,-118.35035"
  },
  "RUCAPA": {
    "city_state": "HOLLYWOOD HILLS",
    "gym_code": "RUCAPA",
    "gym_name": "Runyon Canyon Park - Fuller Entrance Gate",
    "lat_long": "34.105275,-118.348907",
    "gmap_link": "https://www.google.com/maps/place/34.105275,-118.348907"
  },
  "RUMALE": {
    "city_state": "HOLLYWOOD HILLS",
    "gym_code": "RUMALE",
    "gym_name": "Runyon Max Leavitt Memorial",
    "lat_long": "34.106789,-118.348832",
    "gmap_link": "https://www.google.com/maps/place/34.106789,-118.348832"
  },
  "THHOBO": {
    "city_state": "HOLLYWOOD HILLS",
    "gym_code": "THHOBO",
    "gym_name": "The Hollywood Bowl",
    "lat_long": "34.11216,-118.339212",
    "gmap_link": "https://www.google.com/maps/place/34.11216,-118.339212"
  },
  "BBBAFO": {
    "city_state": "KOREATOWN",
    "gym_code": "BBBAFO",
    "gym_name": "BBCN BANK Fountain",
    "lat_long": "34.062075,-118.307214",
    "gmap_link": "https://www.google.com/maps/place/34.062075,-118.307214"
  },
  "BEBEMU": {
    "city_state": "KOREATOWN",
    "gym_code": "BEBEMU",
    "gym_name": "Beer Belly Mural",
    "lat_long": "34.064293,-118.308657",
    "gmap_link": "https://www.google.com/maps/place/34.064293,-118.308657"
  },
  "BRMOKA": {
    "city_state": "KOREATOWN",
    "gym_code": "BRMOKA",
    "gym_name": "Brass Monkey Karaoke",
    "lat_long": "34.061045,-118.298842",
    "gmap_link": "https://www.google.com/maps/place/34.061045,-118.298842"
  },
  "CEEVCH": {
    "city_state": "KOREATOWN",
    "gym_code": "CEEVCH",
    "gym_name": "Central Evangelical Church",
    "lat_long": "34.051487,-118.307814",
    "gmap_link": "https://www.google.com/maps/place/34.051487,-118.307814"
  },
  "CRMU": {
    "city_state": "KOREATOWN",
    "gym_code": "CRMU",
    "gym_name": "Crane Mural",
    "lat_long": "34.052914,-118.312121",
    "gmap_link": "https://www.google.com/maps/place/34.052914,-118.312121"
  },
  "DOAHCH": {
    "city_state": "KOREATOWN",
    "gym_code": "DOAHCH",
    "gym_name": "Dosan Ahn Chang Ho Station Post Office",
    "lat_long": "34.063647,-118.304335",
    "gmap_link": "https://www.google.com/maps/place/34.063647,-118.304335"
  },
  "DUFO": {
    "city_state": "KOREATOWN",
    "gym_code": "DUFO",
    "gym_name": "Duck Fountain",
    "lat_long": "34.057948,-118.302715",
    "gmap_link": "https://www.google.com/maps/place/34.057948,-118.302715"
  },
  "EAPRCH": {
    "city_state": "KOREATOWN",
    "gym_code": "EAPRCH",
    "gym_name": "Eastern Presbyterian Church",
    "lat_long": "34.0634,-118.317498",
    "gmap_link": "https://www.google.com/maps/place/34.0634,-118.317498"
  },
  "FIBACH": {
    "city_state": "KOREATOWN",
    "gym_code": "FIBACH",
    "gym_name": "First Baptist Church",
    "lat_long": "34.058478,-118.288819",
    "gmap_link": "https://www.google.com/maps/place/34.058478,-118.288819"
  },
  "FOATTH": {
    "city_state": "KOREATOWN",
    "gym_code": "FOATTH",
    "gym_name": "Fountain at the Cleo",
    "lat_long": "34.067715,-118.29812",
    "gmap_link": "https://www.google.com/maps/place/34.067715,-118.29812"
  },
  "GUREMU": {
    "city_state": "KOREATOWN",
    "gym_code": "GUREMU",
    "gym_name": "Guelaguetza Restaurante Mural",
    "lat_long": "34.052507,-118.30079",
    "gmap_link": "https://www.google.com/maps/place/34.052507,-118.30079"
  },
  "HABAMU": {
    "city_state": "KOREATOWN",
    "gym_code": "HABAMU",
    "gym_name": "Hanmi Bank Mural",
    "lat_long": "34.053089,-118.309237",
    "gmap_link": "https://www.google.com/maps/place/34.053089,-118.309237"
  },
  "HUSCFO": {
    "city_state": "KOREATOWN",
    "gym_code": "HUSCFO",
    "gym_name": "Human Sculpture Fountain",
    "lat_long": "34.061612,-118.297959",
    "gmap_link": "https://www.google.com/maps/place/34.061612,-118.297959"
  },
  "ISEYO": {
    "city_state": "KOREATOWN",
    "gym_code": "ISEYO",
    "gym_name": "I See you Mural",
    "lat_long": "34.061955,-118.301482",
    "gmap_link": "https://www.google.com/maps/place/34.061955,-118.301482"
  },
  "KOCH": {
    "city_state": "KOREATOWN",
    "gym_code": "KOCH",
    "gym_name": "Korean Church",
    "lat_long": "34.064592,-118.310245",
    "gmap_link": "https://www.google.com/maps/place/34.064592,-118.310245"
  },
  "KOGA": {
    "city_state": "KOREATOWN",
    "gym_code": "KOGA",
    "gym_name": "Koreatown Galleria",
    "lat_long": "34.052491,-118.308887",
    "gmap_link": "https://www.google.com/maps/place/34.052491,-118.308887"
  },
  "KOGASI": {
    "city_state": "KOREATOWN",
    "gym_code": "KOGASI",
    "gym_name": "Koreatown Gateway Sign: Olympic and Vermont",
    "lat_long": "34.052777,-118.292136",
    "gmap_link": "https://www.google.com/maps/place/34.052777,-118.292136"
  },
  "KOMA": {
    "city_state": "KOREATOWN",
    "gym_code": "KOMA",
    "gym_name": "Koreatown Marker",
    "lat_long": "34.05271,-118.302744",
    "gmap_link": "https://www.google.com/maps/place/34.05271,-118.302744"
  },
  "OBPEMU": {
    "city_state": "KOREATOWN",
    "gym_code": "OBPEMU",
    "gym_name": "Obey Peace Mural",
    "lat_long": "34.061927,-118.300877",
    "gmap_link": "https://www.google.com/maps/place/34.061927,-118.300877"
  },
  "OULATH": {
    "city_state": "KOREATOWN",
    "gym_code": "OULATH",
    "gym_name": "Our Lady-Of The Angels",
    "lat_long": "34.061783,-118.304032",
    "gmap_link": "https://www.google.com/maps/place/34.061783,-118.304032"
  },
  "PR": {
    "city_state": "KOREATOWN",
    "gym_code": "PR",
    "gym_name": "Prince",
    "lat_long": "34.059599,-118.295117",
    "gmap_link": "https://www.google.com/maps/place/34.059599,-118.295117"
  },
  "SAJACH": {
    "city_state": "KOREATOWN",
    "gym_code": "SAJACH",
    "gym_name": "Saint James Church Sign",
    "lat_long": "34.063398,-118.31173",
    "gmap_link": "https://www.google.com/maps/place/34.063398,-118.31173"
  },
  "SEINPA": {
    "city_state": "KOREATOWN",
    "gym_code": "SEINPA",
    "gym_name": "Seoul International Park",
    "lat_long": "34.054359,-118.300984",
    "gmap_link": "https://www.google.com/maps/place/34.054359,-118.300984"
  },
  "SH39LA": {
    "city_state": "KOREATOWN",
    "gym_code": "SH39LA",
    "gym_name": "Shatto 39 Lanes",
    "lat_long": "34.067295,-118.291181",
    "gmap_link": "https://www.google.com/maps/place/34.067295,-118.291181"
  },
  "SPWEAN": {
    "city_state": "KOREATOWN",
    "gym_code": "SPWEAN",
    "gym_name": "Sprint Western and 4th",
    "lat_long": "34.066911,-118.308899",
    "gmap_link": "https://www.google.com/maps/place/34.066911,-118.308899"
  },
  "SPWIAR": {
    "city_state": "KOREATOWN",
    "gym_code": "SPWIAR",
    "gym_name": "Sprint Wilshire Ardmore",
    "lat_long": "34.061551,-118.301298",
    "gmap_link": "https://www.google.com/maps/place/34.061551,-118.301298"
  },
  "SPWIMA": {
    "city_state": "KOREATOWN",
    "gym_code": "SPWIMA",
    "gym_name": "Sprint Wilshire Mariposa",
    "lat_long": "34.061572,-118.298451",
    "gmap_link": "https://www.google.com/maps/place/34.061572,-118.298451"
  },
  "STJACH": {
    "city_state": "KOREATOWN",
    "gym_code": "STJACH",
    "gym_name": "St. James Church",
    "lat_long": "34.061928,-118.311705",
    "gmap_link": "https://www.google.com/maps/place/34.061928,-118.311705"
  },
  "STKEPA": {
    "city_state": "KOREATOWN",
    "gym_code": "STKEPA",
    "gym_name": "St. Kevin Parish",
    "lat_long": "34.076166,-118.298102",
    "gmap_link": "https://www.google.com/maps/place/34.076166,-118.298102"
  },
  "STMAEP": {
    "city_state": "KOREATOWN",
    "gym_code": "STMAEP",
    "gym_name": "St. Mary's Episcopal Church",
    "lat_long": "34.053899,-118.299084",
    "gmap_link": "https://www.google.com/maps/place/34.053899,-118.299084"
  },
  "STWIAN": {
    "city_state": "KOREATOWN",
    "gym_code": "STWIAN",
    "gym_name": "Starbucks Wilshire and Serrano",
    "lat_long": "34.06133863,-118.3064072",
    "gmap_link": "https://www.google.com/maps/place/34.06133863,-118.3064072"
  },
  "TAMASA": {
    "city_state": "KOREATOWN",
    "gym_code": "TAMASA",
    "gym_name": "Tahl Mah Sah Buddhist Temple",
    "lat_long": "34.052919,-118.314869",
    "gmap_link": "https://www.google.com/maps/place/34.052919,-118.314869"
  },
  "THHEOF": {
    "city_state": "KOREATOWN",
    "gym_code": "THHEOF",
    "gym_name": "The Heart of Korean Immigrants Statue",
    "lat_long": "34.062126,-118.328303",
    "gmap_link": "https://www.google.com/maps/place/34.062126,-118.328303"
  },
  "THVE": {
    "city_state": "KOREATOWN",
    "gym_code": "THVE",
    "gym_name": "The Vermont",
    "lat_long": "34.061515,-118.291073",
    "gmap_link": "https://www.google.com/maps/place/34.061515,-118.291073"
  },
  "THWI": {
    "city_state": "KOREATOWN",
    "gym_code": "THWI",
    "gym_name": "The Wiltern",
    "lat_long": "34.061521,-118.308922",
    "gmap_link": "https://www.google.com/maps/place/34.061521,-118.308922"
  },
  "WABEFO": {
    "city_state": "KOREATOWN",
    "gym_code": "WABEFO",
    "gym_name": "Water Bearer Fountain",
    "lat_long": "34.059357,-118.312485",
    "gmap_link": "https://www.google.com/maps/place/34.059357,-118.312485"
  },
  "WOWE": {
    "city_state": "KOREATOWN",
    "gym_code": "WOWE",
    "gym_name": "World-8 West",
    "lat_long": "34.051026,-118.291746",
    "gmap_link": "https://www.google.com/maps/place/34.051026,-118.291746"
  },
  "GEWAAR": {
    "city_state": "LA BREA",
    "gym_code": "GEWAAR",
    "gym_name": "Geometric Wall Art!",
    "lat_long": "34.072136,-118.365058",
    "gmap_link": "https://www.google.com/maps/place/34.072136,-118.365058"
  },
  "HASA": {
    "city_state": "LA BREA",
    "gym_code": "HASA",
    "gym_name": "Haym Salomon",
    "lat_long": "34.070537,-118.353313",
    "gmap_link": "https://www.google.com/maps/place/34.070537,-118.353313"
  },
  "HUTA": {
    "city_state": "LA BREA",
    "gym_code": "HUTA",
    "gym_name": "Hunan Tasty",
    "lat_long": "34.058099,-118.362509",
    "gmap_link": "https://www.google.com/maps/place/34.058099,-118.362509"
  },
  "LABRTA": {
    "city_state": "LA BREA",
    "gym_code": "LABRTA",
    "gym_name": "La Brea Tar Pits",
    "lat_long": "34.062753,-118.355365",
    "gmap_link": "https://www.google.com/maps/place/34.062753,-118.355365"
  },
  "LESCAT": {
    "city_state": "LA BREA",
    "gym_code": "LESCAT",
    "gym_name": "Lenin Sculpture at the Ace Museum",
    "lat_long": "34.066778,-118.343878",
    "gmap_link": "https://www.google.com/maps/place/34.066778,-118.343878"
  },
  "LEMA": {
    "city_state": "LA BREA",
    "gym_code": "LEMA",
    "gym_name": "Levitated Mass",
    "lat_long": "34.064404,-118.359729",
    "gmap_link": "https://www.google.com/maps/place/34.064404,-118.359729"
  },
  "MACEPE": {
    "city_state": "LA BREA",
    "gym_code": "MACEPE",
    "gym_name": "MAK Center Pearl M. Mackey Apartment",
    "lat_long": "34.054741,-118.350335",
    "gmap_link": "https://www.google.com/maps/place/34.054741,-118.350335"
  },
  "MECEFA": {
    "city_state": "LA BREA",
    "gym_code": "MECEFA",
    "gym_name": "Metro Center Facade",
    "lat_long": "34.062363,-118.344269",
    "gmap_link": "https://www.google.com/maps/place/34.062363,-118.344269"
  },
  "NLABR": {
    "city_state": "LA BREA",
    "gym_code": "NLABR",
    "gym_name": "N La Brea Angels",
    "lat_long": "34.075556,-118.344155",
    "gmap_link": "https://www.google.com/maps/place/34.075556,-118.344155"
  },
  "NECL": {
    "city_state": "LA BREA",
    "gym_code": "NECL",
    "gym_name": "Neri Clock",
    "lat_long": "34.072521,-118.35838",
    "gmap_link": "https://www.google.com/maps/place/34.072521,-118.35838"
  },
  "PIBE": {
    "city_state": "LA BREA",
    "gym_code": "PIBE",
    "gym_name": "Pink Bear",
    "lat_long": "34.071566,-118.343891",
    "gmap_link": "https://www.google.com/maps/place/34.071566,-118.343891"
  },
  "SABO": {
    "city_state": "LA BREA",
    "gym_code": "SABO",
    "gym_name": "Sabertooth Bones",
    "lat_long": "34.067493,-118.358195",
    "gmap_link": "https://www.google.com/maps/place/34.067493,-118.358195"
  },
  "STFO": {
    "city_state": "LA BREA",
    "gym_code": "STFO",
    "gym_name": "Star Fountain",
    "lat_long": "34.067492,-118.352124",
    "gmap_link": "https://www.google.com/maps/place/34.067492,-118.352124"
  },
  "STOFSA": {
    "city_state": "LA BREA",
    "gym_code": "STOFSA",
    "gym_name": "Statue of saber tooth cats - P",
    "lat_long": "34.06338,-118.355618",
    "gmap_link": "https://www.google.com/maps/place/34.06338,-118.355618"
  },
  "SUWAAR": {
    "city_state": "LA BREA",
    "gym_code": "SUWAAR",
    "gym_name": "Super Wall Art",
    "lat_long": "34.073334,-118.343539",
    "gmap_link": "https://www.google.com/maps/place/34.073334,-118.343539"
  },
  "THDOHO": {
    "city_state": "LA BREA",
    "gym_code": "THDOHO",
    "gym_name": "The Dog House",
    "lat_long": "34.069875,-118.350214",
    "gmap_link": "https://www.google.com/maps/place/34.069875,-118.350214"
  },
  "THGR": {
    "city_state": "LA BREA",
    "gym_code": "THGR",
    "gym_name": "The Grove",
    "lat_long": "34.071988,-118.357588",
    "gmap_link": "https://www.google.com/maps/place/34.071988,-118.357588"
  },
  "UPCAMU": {
    "city_state": "LA BREA",
    "gym_code": "UPCAMU",
    "gym_name": "Up Car Mural",
    "lat_long": "34.067319,-118.344217",
    "gmap_link": "https://www.google.com/maps/place/34.067319,-118.344217"
  },
  "URLI": {
    "city_state": "LA BREA",
    "gym_code": "URLI",
    "gym_name": "Urban Light",
    "lat_long": "34.063032,-118.359224",
    "gmap_link": "https://www.google.com/maps/place/34.063032,-118.359224"
  },
  "WACA": {
    "city_state": "LA BREA",
    "gym_code": "WACA",
    "gym_name": "Watering Can",
    "lat_long": "34.072365,-118.357812",
    "gmap_link": "https://www.google.com/maps/place/34.072365,-118.357812"
  },
  "WRGUOF": {
    "city_state": "LA BREA",
    "gym_code": "WRGUOF",
    "gym_name": "Writers Guild of America",
    "lat_long": "34.071334,-118.361577",
    "gmap_link": "https://www.google.com/maps/place/34.071334,-118.361577"
  },
  "AROBY": {
    "city_state": "LOS FELIZ",
    "gym_code": "AROBY",
    "gym_name": "A Rose by Any Other Name",
    "lat_long": "34.111748,-118.286968",
    "gmap_link": "https://www.google.com/maps/place/34.111748,-118.286968"
  },
  "AUGI": {
    "city_state": "LOS FELIZ",
    "gym_code": "AUGI",
    "gym_name": "Autumn Girl",
    "lat_long": "34.098071,-118.280363",
    "gmap_link": "https://www.google.com/maps/place/34.098071,-118.280363"
  },
  "BAARPA": {
    "city_state": "LOS FELIZ",
    "gym_code": "BAARPA",
    "gym_name": "Barnsdall Art Park",
    "lat_long": "34.101597,-118.294217",
    "gmap_link": "https://www.google.com/maps/place/34.101597,-118.294217"
  },
  "BRLOLE": {
    "city_state": "LOS FELIZ",
    "gym_code": "BRLOLE",
    "gym_name": "Brother Long Legs Mural",
    "lat_long": "34.100567,-118.290514",
    "gmap_link": "https://www.google.com/maps/place/34.100567,-118.290514"
  },
  "CHDYDR": {
    "city_state": "LOS FELIZ",
    "gym_code": "CHDYDR",
    "gym_name": "Chi Dynasty Dragons",
    "lat_long": "34.104137,-118.287738",
    "gmap_link": "https://www.google.com/maps/place/34.104137,-118.287738"
  },
  "FLLIAR": {
    "city_state": "LOS FELIZ",
    "gym_code": "FLLIAR",
    "gym_name": "Flower Lion Art",
    "lat_long": "34.096003,-118.281747",
    "gmap_link": "https://www.google.com/maps/place/34.096003,-118.281747"
  },
  "GLSTMO": {
    "city_state": "LOS FELIZ",
    "gym_code": "GLSTMO",
    "gym_name": "Glendower Steps Mosaic",
    "lat_long": "34.114847,-118.295223",
    "gmap_link": "https://www.google.com/maps/place/34.114847,-118.295223"
  },
  "GU": {
    "city_state": "LOS FELIZ",
    "gym_code": "GU",
    "gym_name": "Gurdwara",
    "lat_long": "34.107581,-118.29141",
    "gmap_link": "https://www.google.com/maps/place/34.107581,-118.29141"
  },
  "LIARO": {
    "city_state": "LOS FELIZ",
    "gym_code": "LIARO",
    "gym_name": "Like a Rock",
    "lat_long": "34.101676,-118.291932",
    "gmap_link": "https://www.google.com/maps/place/34.101676,-118.291932"
  },
  "LOFELI": {
    "city_state": "LOS FELIZ",
    "gym_code": "LOFELI",
    "gym_name": "Los Feliz LittleFreeLibrary",
    "lat_long": "34.110232,-118.272851",
    "gmap_link": "https://www.google.com/maps/place/34.110232,-118.272851"
  },
  "LOFEMU": {
    "city_state": "LOS FELIZ",
    "gym_code": "LOFEMU",
    "gym_name": "Los Feliz Mural",
    "lat_long": "34.10261,-118.291583",
    "gmap_link": "https://www.google.com/maps/place/34.10261,-118.291583"
  },
  "MAARNO": {
    "city_state": "LOS FELIZ",
    "gym_code": "MAARNO",
    "gym_name": "Make Art Not War",
    "lat_long": "34.104348,-118.273828",
    "gmap_link": "https://www.google.com/maps/place/34.104348,-118.273828"
  },
  "MUMEFO": {
    "city_state": "LOS FELIZ",
    "gym_code": "MUMEFO",
    "gym_name": "Mulholland Memorial Fountain",
    "lat_long": "34.11613,-118.27152",
    "gmap_link": "https://www.google.com/maps/place/34.11613,-118.27152"
  },
  "OUMOOF": {
    "city_state": "LOS FELIZ",
    "gym_code": "OUMOOF",
    "gym_name": "Our Mother of Good Counsel",
    "lat_long": "34.10973,-118.29162",
    "gmap_link": "https://www.google.com/maps/place/34.10973,-118.29162"
  },
  "OV": {
    "city_state": "LOS FELIZ",
    "gym_code": "OV",
    "gym_name": "Overthrone",
    "lat_long": "34.102323,-118.291366",
    "gmap_link": "https://www.google.com/maps/place/34.102323,-118.291366"
  },
  "SHBRFR": {
    "city_state": "LOS FELIZ",
    "gym_code": "SHBRFR",
    "gym_name": "Shakespeare Bridge Franklin H",
    "lat_long": "34.10553,-118.280017",
    "gmap_link": "https://www.google.com/maps/place/34.10553,-118.280017"
  },
  "THASMO": {
    "city_state": "LOS FELIZ",
    "gym_code": "THASMO",
    "gym_name": "The Astronomers Monument",
    "lat_long": "34.118862,-118.300341",
    "gmap_link": "https://www.google.com/maps/place/34.118862,-118.300341"
  },
  "THRO": {
    "city_state": "LOS FELIZ",
    "gym_code": "THRO",
    "gym_name": "The Rose",
    "lat_long": "34.101882,-118.287246",
    "gmap_link": "https://www.google.com/maps/place/34.101882,-118.287246"
  },
  "TI": {
    "city_state": "LOS FELIZ",
    "gym_code": "TI",
    "gym_name": "Tiki-Ti",
    "lat_long": "34.097436,-118.28572",
    "gmap_link": "https://www.google.com/maps/place/34.097436,-118.28572"
  },
  "UNOFPH": {
    "city_state": "LOS FELIZ",
    "gym_code": "UNOFPH",
    "gym_name": "University of Philosophical Research",
    "lat_long": "34.113278,-118.277448",
    "gmap_link": "https://www.google.com/maps/place/34.113278,-118.277448"
  },
  "WIROME": {
    "city_state": "LOS FELIZ",
    "gym_code": "WIROME",
    "gym_name": "Will Rogers Memorial",
    "lat_long": "34.115302,-118.271238",
    "gmap_link": "https://www.google.com/maps/place/34.115302,-118.271238"
  },
  "AMFL": {
    "city_state": "MID CITY",
    "gym_code": "AMFL",
    "gym_name": "American Flag",
    "lat_long": "34.040039,-118.32186",
    "gmap_link": "https://www.google.com/maps/place/34.040039,-118.32186"
  },
  "BUMICI": {
    "city_state": "MID CITY",
    "gym_code": "BUMICI",
    "gym_name": "Bubblehead Mid City",
    "lat_long": "34.047697,-118.326522",
    "gmap_link": "https://www.google.com/maps/place/34.047697,-118.326522"
  },
  "BY-LA": {
    "city_state": "MID CITY",
    "gym_code": "BY-LA",
    "gym_name": "Byzantine - Latino Quarter Mural",
    "lat_long": "34.047033,-118.300363",
    "gmap_link": "https://www.google.com/maps/place/34.047033,-118.300363"
  },
  "CAON": {
    "city_state": "MID CITY",
    "gym_code": "CAON",
    "gym_name": "Catch One",
    "lat_long": "34.047661,-118.324117",
    "gmap_link": "https://www.google.com/maps/place/34.047661,-118.324117"
  },
  "CHTHHO": {
    "city_state": "MID CITY",
    "gym_code": "CHTHHO",
    "gym_name": "Church-of the Holy Spirit",
    "lat_long": "34.048205,-118.354035",
    "gmap_link": "https://www.google.com/maps/place/34.048205,-118.354035"
  },
  "COAVBA": {
    "city_state": "MID CITY",
    "gym_code": "COAVBA",
    "gym_name": "Cochran Ave. Baptist Church",
    "lat_long": "34.050765,-118.3515",
    "gmap_link": "https://www.google.com/maps/place/34.050765,-118.3515"
  },
  "COMUMI": {
    "city_state": "MID CITY",
    "gym_code": "COMUMI",
    "gym_name": "Community Mural Mid City",
    "lat_long": "34.038685,-118.296173",
    "gmap_link": "https://www.google.com/maps/place/34.038685,-118.296173"
  },
  "DICHAN": {
    "city_state": "MID CITY",
    "gym_code": "DICHAN",
    "gym_name": "Dino's Chicken and Burgers",
    "lat_long": "34.047404,-118.293868",
    "gmap_link": "https://www.google.com/maps/place/34.047404,-118.293868"
  },
  "DOMUMI": {
    "city_state": "MID CITY",
    "gym_code": "DOMUMI",
    "gym_name": "Dog Mural Mid City",
    "lat_long": "34.040045,-118.316471",
    "gmap_link": "https://www.google.com/maps/place/34.040045,-118.316471"
  },
  "DUDO": {
    "city_state": "MID CITY",
    "gym_code": "DUDO",
    "gym_name": "DUNKIN' DONUTS",
    "lat_long": "34.043318,-118.309198",
    "gmap_link": "https://www.google.com/maps/place/34.043318,-118.309198"
  },
  "ETCHFE": {
    "city_state": "MID CITY",
    "gym_code": "ETCHFE",
    "gym_name": "Ethiopian Christian Fellowship Church",
    "lat_long": "34.047307,-118.317855",
    "gmap_link": "https://www.google.com/maps/place/34.047307,-118.317855"
  },
  "EVEY": {
    "city_state": "MID CITY",
    "gym_code": "EVEY",
    "gym_name": "Evil Eyes",
    "lat_long": "34.039718,-118.324777",
    "gmap_link": "https://www.google.com/maps/place/34.039718,-118.324777"
  },
  "FIPRMI": {
    "city_state": "MID CITY",
    "gym_code": "FIPRMI",
    "gym_name": "First Presbyterian-Church MidCity",
    "lat_long": "34.040493,-118.337041",
    "gmap_link": "https://www.google.com/maps/place/34.040493,-118.337041"
  },
  "GIANDO": {
    "city_state": "MID CITY",
    "gym_code": "GIANDO",
    "gym_name": "Girl and Dog Mural",
    "lat_long": "34.047965,-118.345853",
    "gmap_link": "https://www.google.com/maps/place/34.047965,-118.345853"
  },
  "HABU": {
    "city_state": "MID CITY",
    "gym_code": "HABU",
    "gym_name": "Harbor Building",
    "lat_long": "34.061855,-118.319364",
    "gmap_link": "https://www.google.com/maps/place/34.061855,-118.319364"
  },
  "HAGUME": {
    "city_state": "MID CITY",
    "gym_code": "HAGUME",
    "gym_name": "Harveys Guss Meat Co",
    "lat_long": "34.048496,-118.35719",
    "gmap_link": "https://www.google.com/maps/place/34.048496,-118.35719"
  },
  "HA": {
    "city_state": "MID CITY",
    "gym_code": "HA",
    "gym_name": "Hawaiian",
    "lat_long": "34.044655,-118.345722",
    "gmap_link": "https://www.google.com/maps/place/34.044655,-118.345722"
  },
  "HIHOBI": {
    "city_state": "MID CITY",
    "gym_code": "HIHOBI",
    "gym_name": "Hip Hop Bird Mural",
    "lat_long": "34.039414,-118.313285",
    "gmap_link": "https://www.google.com/maps/place/34.039414,-118.313285"
  },
  "HUPA": {
    "city_state": "MID CITY",
    "gym_code": "HUPA",
    "gym_name": "Huicho's Panaderia",
    "lat_long": "34.047385,-118.290831",
    "gmap_link": "https://www.google.com/maps/place/34.047385,-118.290831"
  },
  "LAIMMI": {
    "city_state": "MID CITY",
    "gym_code": "LAIMMI",
    "gym_name": "LA Immanuel Mission Church",
    "lat_long": "34.041038,-118.308814",
    "gmap_link": "https://www.google.com/maps/place/34.041038,-118.308814"
  },
  "LALEMU": {
    "city_state": "MID CITY",
    "gym_code": "LALEMU",
    "gym_name": "Lakers Legends Mural",
    "lat_long": "34.047556,-118.349565",
    "gmap_link": "https://www.google.com/maps/place/34.047556,-118.349565"
  },
  "LIONWA": {
    "city_state": "MID CITY",
    "gym_code": "LIONWA",
    "gym_name": "Lion On Wall",
    "lat_long": "34.038776,-118.317627",
    "gmap_link": "https://www.google.com/maps/place/34.038776,-118.317627"
  },
  "LOYOCI": {
    "city_state": "MID CITY",
    "gym_code": "LOYOCI",
    "gym_name": "Love Your City Mural",
    "lat_long": "34.043773,-118.321449",
    "gmap_link": "https://www.google.com/maps/place/34.043773,-118.321449"
  },
  "LSHIBE": {
    "city_state": "MID CITY",
    "gym_code": "LSHIBE",
    "gym_name": "LS High Bell Tower",
    "lat_long": "34.056375,-118.332578",
    "gmap_link": "https://www.google.com/maps/place/34.056375,-118.332578"
  },
  "NAWOFO": {
    "city_state": "MID CITY",
    "gym_code": "NAWOFO",
    "gym_name": "Naked Women Fountain",
    "lat_long": "34.042151,-118.291688",
    "gmap_link": "https://www.google.com/maps/place/34.042151,-118.291688"
  },
  "OUOFSE": {
    "city_state": "MID CITY",
    "gym_code": "OUOFSE",
    "gym_name": "Out Of Service Horsie",
    "lat_long": "34.038539,-118.328047",
    "gmap_link": "https://www.google.com/maps/place/34.038539,-118.328047"
  },
  "OWRHGA": {
    "city_state": "MID CITY",
    "gym_code": "OWRHGA",
    "gym_name": "Owl Rhino Gator Gorilla Mural",
    "lat_long": "34.050098,-118.344467",
    "gmap_link": "https://www.google.com/maps/place/34.050098,-118.344467"
  },
  "PY": {
    "city_state": "MID CITY",
    "gym_code": "PY",
    "gym_name": "Pyramid",
    "lat_long": "34.042466,-118.298086",
    "gmap_link": "https://www.google.com/maps/place/34.042466,-118.298086"
  },
  "SACA": {
    "city_state": "MID CITY",
    "gym_code": "SACA",
    "gym_name": "Sanamluang Cafe",
    "lat_long": "34.101461,-118.302962",
    "gmap_link": "https://www.google.com/maps/place/34.101461,-118.302962"
  },
  "SATHOC": {
    "city_state": "MID CITY",
    "gym_code": "SATHOC",
    "gym_name": "Save the Ocean Mural",
    "lat_long": "34.032531,-118.317884",
    "gmap_link": "https://www.google.com/maps/place/34.032531,-118.317884"
  },
  "SHOFGU": {
    "city_state": "MID CITY",
    "gym_code": "SHOFGU",
    "gym_name": "shield of guardian",
    "lat_long": "34.039803,-118.291707",
    "gmap_link": "https://www.google.com/maps/place/34.039803,-118.291707"
  },
  "STPACH": {
    "city_state": "MID CITY",
    "gym_code": "STPACH",
    "gym_name": "St Pauls Church",
    "lat_long": "34.039546,-118.329727",
    "gmap_link": "https://www.google.com/maps/place/34.039546,-118.329727"
  },
  "STSOCA": {
    "city_state": "MID CITY",
    "gym_code": "STSOCA",
    "gym_name": "St. Sophia Cathedral",
    "lat_long": "34.045748,-118.300018",
    "gmap_link": "https://www.google.com/maps/place/34.045748,-118.300018"
  },
  "THCHAT": {
    "city_state": "MID CITY",
    "gym_code": "THCHAT",
    "gym_name": "The Church at Philippi",
    "lat_long": "34.048923,-118.296694",
    "gmap_link": "https://www.google.com/maps/place/34.048923,-118.296694"
  },
  "THWACH": {
    "city_state": "MID CITY",
    "gym_code": "THWACH",
    "gym_name": "The Way Church",
    "lat_long": "34.047199,-118.323754",
    "gmap_link": "https://www.google.com/maps/place/34.047199,-118.323754"
  },
  "TY": {
    "city_state": "MID CITY",
    "gym_code": "TY",
    "gym_name": "Typographical",
    "lat_long": "34.042556,-118.296595",
    "gmap_link": "https://www.google.com/maps/place/34.042556,-118.296595"
  },
  "UNMAHO": {
    "city_state": "MID CITY",
    "gym_code": "UNMAHO",
    "gym_name": "United Magyar House",
    "lat_long": "34.040098,-118.302668",
    "gmap_link": "https://www.google.com/maps/place/34.040098,-118.302668"
  },
  "WEANYO": {
    "city_state": "MID CITY",
    "gym_code": "WEANYO",
    "gym_name": "West Angeles Youth Ministry",
    "lat_long": "34.025682,-118.335941",
    "gmap_link": "https://www.google.com/maps/place/34.025682,-118.335941"
  },
  "BEMU": {
    "city_state": "MID WILSHIRE",
    "gym_code": "BEMU",
    "gym_name": "Beats Mural",
    "lat_long": "34.045783,-118.348462",
    "gmap_link": "https://www.google.com/maps/place/34.045783,-118.348462"
  },
  "BLMEMU": {
    "city_state": "MID WILSHIRE",
    "gym_code": "BLMEMU",
    "gym_name": "BLike ME Mural",
    "lat_long": "34.049811,-118.359578",
    "gmap_link": "https://www.google.com/maps/place/34.049811,-118.359578"
  },
  "HAAHE": {
    "city_state": "MID WILSHIRE",
    "gym_code": "HAAHE",
    "gym_name": "Harold A Henry Statute Head",
    "lat_long": "34.057685,-118.324911",
    "gmap_link": "https://www.google.com/maps/place/34.057685,-118.324911"
  },
  "HIBEMU": {
    "city_state": "MID WILSHIRE",
    "gym_code": "HIBEMU",
    "gym_name": "Hipster Bear Mural",
    "lat_long": "34.05376,-118.343397",
    "gmap_link": "https://www.google.com/maps/place/34.05376,-118.343397"
  },
  "HOMILO": {
    "city_state": "MID WILSHIRE",
    "gym_code": "HOMILO",
    "gym_name": "Hon Michi Los Angeles Shutchosho",
    "lat_long": "34.062061,-118.32532",
    "gmap_link": "https://www.google.com/maps/place/34.062061,-118.32532"
  },
  "WEBOBR": {
    "city_state": "MID WILSHIRE",
    "gym_code": "WEBOBR",
    "gym_name": "West Boulevard Bridge",
    "lat_long": "34.046732,-118.334263",
    "gmap_link": "https://www.google.com/maps/place/34.046732,-118.334263"
  },
  "WEHEFO": {
    "city_state": "MID WILSHIRE",
    "gym_code": "WEHEFO",
    "gym_name": "Westside Health Fountain",
    "lat_long": "34.057767,-118.363907",
    "gmap_link": "https://www.google.com/maps/place/34.057767,-118.363907"
  },
  "GOTOBU": {
    "city_state": "OAKWOOD",
    "gym_code": "GOTOBU",
    "gym_name": "Gold Topped Building",
    "lat_long": "34.069047,-118.309279",
    "gmap_link": "https://www.google.com/maps/place/34.069047,-118.309279"
  },
  "KFBURE": {
    "city_state": "OAKWOOD",
    "gym_code": "KFBURE",
    "gym_name": "KFC Bucket Restaurant",
    "lat_long": "34.077493,-118.309014",
    "gmap_link": "https://www.google.com/maps/place/34.077493,-118.309014"
  },
  "SMCH": {
    "city_state": "OAKWOOD",
    "gym_code": "SMCH",
    "gym_name": "Smog Check",
    "lat_long": "34.076373,-118.304941",
    "gmap_link": "https://www.google.com/maps/place/34.076373,-118.304941"
  },
  "SWRE": {
    "city_state": "OAKWOOD",
    "gym_code": "SWRE",
    "gym_name": "Swadesh Restaurant",
    "lat_long": "34.069165,-118.304587",
    "gmap_link": "https://www.google.com/maps/place/34.069165,-118.304587"
  },
  "THEYMA": {
    "city_state": "OAKWOOD",
    "gym_code": "THEYMA",
    "gym_name": "Third Eye Man",
    "lat_long": "34.076184,-118.304857",
    "gmap_link": "https://www.google.com/maps/place/34.076184,-118.304857"
  },
  "WIBACH": {
    "city_state": "OAKWOOD",
    "gym_code": "WIBACH",
    "gym_name": "Wilshire Baptist Church",
    "lat_long": "34.076347,-118.308399",
    "gmap_link": "https://www.google.com/maps/place/34.076347,-118.308399"
  },
  "WILI": {
    "city_state": "OAKWOOD",
    "gym_code": "WILI",
    "gym_name": "Wilshire Library",
    "lat_long": "34.074439,-118.311682",
    "gmap_link": "https://www.google.com/maps/place/34.074439,-118.311682"
  },
  "YEHOCA": {
    "city_state": "OAKWOOD",
    "gym_code": "YEHOCA",
    "gym_name": "Yellow House Cafe",
    "lat_long": "34.070133,-118.307783",
    "gmap_link": "https://www.google.com/maps/place/34.070133,-118.307783"
  },
  "DEPLAR": {
    "city_state": "RAMPART VILLAGE",
    "gym_code": "DEPLAR",
    "gym_name": "Dental Playground Art",
    "lat_long": "34.069292,-118.295314",
    "gmap_link": "https://www.google.com/maps/place/34.069292,-118.295314"
  },
  "DEDOCR": {
    "city_state": "RAMPART VILLAGE",
    "gym_code": "DEDOCR",
    "gym_name": "Derby Dolls Crossbones Mural",
    "lat_long": "34.06916,-118.26655",
    "gmap_link": "https://www.google.com/maps/place/34.06916,-118.26655"
  },
  "DECO": {
    "city_state": "RAMPART VILLAGE",
    "gym_code": "DECO",
    "gym_name": "Deux Colombes",
    "lat_long": "34.065471,-118.260114",
    "gmap_link": "https://www.google.com/maps/place/34.065471,-118.260114"
  },
  "FICOCH": {
    "city_state": "RAMPART VILLAGE",
    "gym_code": "FICOCH",
    "gym_name": "First Congregational Church",
    "lat_long": "34.063988,-118.28444",
    "gmap_link": "https://www.google.com/maps/place/34.063988,-118.28444"
  },
  "GASICO": {
    "city_state": "RAMPART VILLAGE",
    "gym_code": "GASICO",
    "gym_name": "Galleria Silver Columns",
    "lat_long": "34.062358,-118.291512",
    "gmap_link": "https://www.google.com/maps/place/34.062358,-118.291512"
  },
  "HACRBA": {
    "city_state": "RAMPART VILLAGE",
    "gym_code": "HACRBA",
    "gym_name": "Hallucinating Crystal Balloons",
    "lat_long": "34.055208,-118.282647",
    "gmap_link": "https://www.google.com/maps/place/34.055208,-118.282647"
  },
  "JOCH": {
    "city_state": "RAMPART VILLAGE",
    "gym_code": "JOCH",
    "gym_name": "Joohyang Church",
    "lat_long": "34.06714,-118.292982",
    "gmap_link": "https://www.google.com/maps/place/34.06714,-118.292982"
  },
  "LAJEBA": {
    "city_state": "RAMPART VILLAGE",
    "gym_code": "LAJEBA",
    "gym_name": "LA Jesus Baptist Church",
    "lat_long": "34.071838,-118.281968",
    "gmap_link": "https://www.google.com/maps/place/34.071838,-118.281968"
  },
  "ORTOWO": {
    "city_state": "RAMPART VILLAGE",
    "gym_code": "ORTOWO",
    "gym_name": "Original Tommy's World Famous Hamburgers",
    "lat_long": "34.069564,-118.276598",
    "gmap_link": "https://www.google.com/maps/place/34.069564,-118.276598"
  },
  "OULAMU": {
    "city_state": "RAMPART VILLAGE",
    "gym_code": "OULAMU",
    "gym_name": "Our Lady Mural",
    "lat_long": "34.076172,-118.292881",
    "gmap_link": "https://www.google.com/maps/place/34.076172,-118.292881"
  },
  "PAMO": {
    "city_state": "RAMPART VILLAGE",
    "gym_code": "PAMO",
    "gym_name": "Pastel Mosaic",
    "lat_long": "34.073369,-118.285095",
    "gmap_link": "https://www.google.com/maps/place/34.073369,-118.285095"
  },
  "PRMU": {
    "city_state": "RAMPART VILLAGE",
    "gym_code": "PRMU",
    "gym_name": "Protest Mural",
    "lat_long": "34.075348,-118.280634",
    "gmap_link": "https://www.google.com/maps/place/34.075348,-118.280634"
  },
  "SCAR": {
    "city_state": "RAMPART VILLAGE",
    "gym_code": "SCAR",
    "gym_name": "School Art",
    "lat_long": "34.066746,-118.280629",
    "gmap_link": "https://www.google.com/maps/place/34.066746,-118.280629"
  },
  "THGAGA": {
    "city_state": "RAMPART VILLAGE",
    "gym_code": "THGAGA",
    "gym_name": "The Gabba Gallery",
    "lat_long": "34.072064,-118.283048",
    "gmap_link": "https://www.google.com/maps/place/34.072064,-118.283048"
  },