{
  "ABOR": {
    "city_state": "SPRINGFIELDIL",
    "gym_code": "ABOR",
    "gym_name": "Abe's Orchard",
    "lat_long": "39.802291,-89.64942",
    "gmap_link": "https://www.google.com/maps/place/39.802291,-89.64942"
  },
  "ABLI": {
    "city_state": "SPRINGFIELDIL",
    "gym_code": "ABLI",
    "gym_name": "Abraham Lincoln",
    "lat_long": "39.831479,-89.639976",
    "gmap_link": "https://www.google.com/maps/place/39.831479,-89.639976"
  },
  "ABLIPR": {
    "city_state": "SPRINGFIELDIL",
    "gym_code": "ABLIPR",
    "gym_name": "Abraham Lincoln Presidential Museum",
    "lat_long": "39.80322,-89.647402",
    "gmap_link": "https://www.google.com/maps/place/39.80322,-89.647402"
  },
  "ABLIHO": {
    "city_state": "SPRINGFIELDIL",
    "gym_code": "ABLIHO",
    "gym_name": "Abraham Lincoln's Home",
    "lat_long": "39.797267,-89.644909",
    "gmap_link": "https://www.google.com/maps/place/39.797267,-89.644909"
  },
  "ABMESC": {
    "city_state": "SPRINGFIELDIL",
    "gym_code": "ABMESC",
    "gym_name": "Abstract Metal Sculpture",
    "lat_long": "39.755165,-89.741492",
    "gmap_link": "https://www.google.com/maps/place/39.755165,-89.741492"
  },
  "ABFACH": {
    "city_state": "SPRINGFIELDIL",
    "gym_code": "ABFACH",
    "gym_name": "Abundant Faith Christian Centre",
    "lat_long": "39.770394,-89.619127",
    "gmap_link": "https://www.google.com/maps/place/39.770394,-89.619127"
  },
  "ACOFIN": {
    "city_state": "SPRINGFIELDIL",
    "gym_code": "ACOFIN",
    "gym_name": "Acts of Intolerance",
    "lat_long": "39.803481,-89.648024",
    "gmap_link": "https://www.google.com/maps/place/39.803481,-89.648024"
  },
  "ADWISA": {
    "city_state": "SPRINGFIELDIL",
    "gym_code": "ADWISA",
    "gym_name": "Adam's Wildlife Sanctuary",
    "lat_long": "39.802129,-89.620135",
    "gmap_link": "https://www.google.com/maps/place/39.802129,-89.620135"
  },
  "AMCH": {
    "city_state": "SPRINGFIELDIL",
    "gym_code": "AMCH",
    "gym_name": "American Chai",
    "lat_long": "39.783752,-89.648163",
    "gmap_link": "https://www.google.com/maps/place/39.783752,-89.648163"
  },
  "AMLEPO": {
    "city_state": "SPRINGFIELDIL",
    "gym_code": "AMLEPO",
    "gym_name": "American Legion Post 809",
    "lat_long": "39.797829,-89.630794",
    "gmap_link": "https://www.google.com/maps/place/39.797829,-89.630794"
  },
  "ANGUST": {
    "city_state": "SPRINGFIELDIL",
    "gym_code": "ANGUST",
    "gym_name": "Angel Guardian Statue",
    "lat_long": "39.826077,-89.562114",
    "gmap_link": "https://www.google.com/maps/place/39.826077,-89.562114"
  },
  "AR&RE": {
    "city_state": "SPRINGFIELDIL",
    "gym_code": "AR&RE",
    "gym_name": "Archives & Records",
    "lat_long": "39.7971,-89.6534",
    "gmap_link": "https://www.google.com/maps/place/39.7971,-89.6534"
  },
  "ARFOME": {
    "city_state": "SPRINGFIELDIL",
    "gym_code": "ARFOME",
    "gym_name": "Armed Forces Memorial",
    "lat_long": "39.729457,-89.655028",
    "gmap_link": "https://www.google.com/maps/place/39.729457,-89.655028"
  },
  "ASUNME": {
    "city_state": "SPRINGFIELDIL",
    "gym_code": "ASUNME",
    "gym_name": "Asbury United Methodist",
    "lat_long": "39.7873,-89.638301",
    "gmap_link": "https://www.google.com/maps/place/39.7873,-89.638301"
  },
  "BAPO": {
    "city_state": "SPRINGFIELDIL",
    "gym_code": "BAPO",
    "gym_name": "Balanced Pots",
    "lat_long": "39.820054,-89.654274",
    "gmap_link": "https://www.google.com/maps/place/39.820054,-89.654274"
  },
  "BAME": {
    "city_state": "SPRINGFIELDIL",
    "gym_code": "BAME",
    "gym_name": "Bartolo Memorial",
    "lat_long": "39.832682,-89.655709",
    "gmap_link": "https://www.google.com/maps/place/39.832682,-89.655709"
  },
  "BEAISP": {
    "city_state": "SPRINGFIELDIL",
    "gym_code": "BEAISP",
    "gym_name": "Bel Aire Sputnik",
    "lat_long": "39.767193,-89.648246",
    "gmap_link": "https://www.google.com/maps/place/39.767193,-89.648246"
  },
  "BEINGR": {
    "city_state": "SPRINGFIELDIL",
    "gym_code": "BEINGR",
    "gym_name": "Believe in Green Mural",
    "lat_long": "39.783182,-89.605652",
    "gmap_link": "https://www.google.com/maps/place/39.783182,-89.605652"
  },
  "BEFRST": {
    "city_state": "SPRINGFIELDIL",
    "gym_code": "BEFRST",
    "gym_name": "Benjamin Franklin Statue and Quote",
    "lat_long": "39.793217,-89.647734",
    "gmap_link": "https://www.google.com/maps/place/39.793217,-89.647734"
  },
  "BEANBE": {
    "city_state": "SPRINGFIELDIL",
    "gym_code": "BEANBE",
    "gym_name": "Bernie and Betty's",
    "lat_long": "39.789362,-89.656307",
    "gmap_link": "https://www.google.com/maps/place/39.789362,-89.656307"
  },
  "BINIMU": {
    "city_state": "SPRINGFIELDIL",
    "gym_code": "BINIMU",
    "gym_name": "Bike Night Mural Trailer",
    "lat_long": "39.748181,-89.672123",
    "gmap_link": "https://www.google.com/maps/place/39.748181,-89.672123"
  },
  "BLSAPA": {
    "city_state": "SPRINGFIELDIL",
    "gym_code": "BLSAPA",
    "gym_name": "Blessed Sacrament Parish",
    "lat_long": "39.782525,-89.664539",
    "gmap_link": "https://www.google.com/maps/place/39.782525,-89.664539"
  },
  "BOWIBA": {
    "city_state": "SPRINGFIELDIL",
    "gym_code": "BOWIBA",
    "gym_name": "Boy With Balloon Mural",
    "lat_long": "39.756161,-89.645845",
    "gmap_link": "https://www.google.com/maps/place/39.756161,-89.645845"
  },
  "BRST": {
    "city_state": "SPRINGFIELDIL",
    "gym_code": "BRST",
    "gym_name": "Bronze Stag",
    "lat_long": "39.761722,-89.646482",
    "gmap_link": "https://www.google.com/maps/place/39.761722,-89.646482"
  },
  "BUGOCO": {
    "city_state": "SPRINGFIELDIL",
    "gym_code": "BUGOCO",
    "gym_name": "Bunn Golf Course",
    "lat_long": "39.769006,-89.640516",
    "gmap_link": "https://www.google.com/maps/place/39.769006,-89.640516"
  },
  "CAANMO": {
    "city_state": "SPRINGFIELDIL",
    "gym_code": "CAANMO",
    "gym_name": "Calmness and Moderation",
    "lat_long": "39.697743,-89.598931",
    "gmap_link": "https://www.google.com/maps/place/39.697743,-89.598931"
  },
  "CACEOF": {
    "city_state": "SPRINGFIELDIL",
    "gym_code": "CACEOF",
    "gym_name": "Calvary Cemetery Office",
    "lat_long": "39.827532,-89.654482",
    "gmap_link": "https://www.google.com/maps/place/39.827532,-89.654482"
  },
  "CATE": {
    "city_state": "SPRINGFIELDIL",
    "gym_code": "CATE",
    "gym_name": "Calvary Temple",
    "lat_long": "39.808434,-89.683814",
    "gmap_link": "https://www.google.com/maps/place/39.808434,-89.683814"
  },
  "CAMEDE": {
    "city_state": "SPRINGFIELDIL",
    "gym_code": "CAMEDE",
    "gym_name": "Cantrill Memorial Dedication",
    "lat_long": "39.754851,-89.550953",
    "gmap_link": "https://www.google.com/maps/place/39.754851,-89.550953"
  },
  "CACITR": {
    "city_state": "SPRINGFIELDIL",
    "gym_code": "CACITR",
    "gym_name": "Capital City Training Center",
    "lat_long": "39.80502,-89.655785",
    "gmap_link": "https://www.google.com/maps/place/39.80502,-89.655785"
  },
  "CASPWH": {
    "city_state": "SPRINGFIELDIL",
    "gym_code": "CASPWH",
    "gym_name": "Carter's Spotted White Horse Statue",
    "lat_long": "39.876637,-89.613682",
    "gmap_link": "https://www.google.com/maps/place/39.876637,-89.613682"
  },
  "CACHOF": {
    "city_state": "SPRINGFIELDIL",
    "gym_code": "CACHOF",
    "gym_name": "Cathedral Church of Saint Paul",
    "lat_long": "39.79372,-89.653754",
    "gmap_link": "https://www.google.com/maps/place/39.79372,-89.653754"
  },
  "CAPACE": {
    "city_state": "SPRINGFIELDIL",
    "gym_code": "CAPACE",
    "gym_name": "Catholic Pastoral Center",
    "lat_long": "39.801585,-89.681344",
    "gmap_link": "https://www.google.com/maps/place/39.801585,-89.681344"
  },
  "CEPA": {
    "city_state": "SPRINGFIELDIL",
    "gym_code": "CEPA",
    "gym_name": "Centennial Park",
    "lat_long": "39.756468,-89.757759",
    "gmap_link": "https://www.google.com/maps/place/39.756468,-89.757759"
  },
  "CEBACH": {
    "city_state": "SPRINGFIELDIL",
    "gym_code": "CEBACH",
    "gym_name": "Central Baptist Church",
    "lat_long": "39.797103,-89.65102",
    "gmap_link": "https://www.google.com/maps/place/39.797103,-89.65102"
  },
  "CHMECE": {
    "city_state": "SPRINGFIELDIL",
    "gym_code": "CHMECE",
    "gym_name": "Chatham Memorial Cemetary",
    "lat_long": "39.67646,-89.712927",
    "gmap_link": "https://www.google.com/maps/place/39.67646,-89.712927"
  },
  "CHUNME": {
    "city_state": "SPRINGFIELDIL",
    "gym_code": "CHUNME",
    "gym_name": "Chatham United Methodist Church",
    "lat_long": "39.673951,-89.704948",
    "gmap_link": "https://www.google.com/maps/place/39.673951,-89.704948"
  },
  "CHWAME": {
    "city_state": "SPRINGFIELDIL",
    "gym_code": "CHWAME",
    "gym_name": "Chatham War Memorial",
    "lat_long": "39.674856,-89.705301",
    "gmap_link": "https://www.google.com/maps/place/39.674856,-89.705301"
  },
  "CHTHKI": {
    "city_state": "SPRINGFIELDIL",
    "gym_code": "CHTHKI",
    "gym_name": "Christ the King Parish",
    "lat_long": "39.773667,-89.689457",
    "gmap_link": "https://www.google.com/maps/place/39.773667,-89.689457"
  },
  "CIPUSE": {
    "city_state": "SPRINGFIELDIL",
    "gym_code": "CIPUSE",
    "gym_name": "CI Public Service Co Histroic Marker",
    "lat_long": "39.803491,-89.64367",
    "gmap_link": "https://www.google.com/maps/place/39.803491,-89.64367"
  },
  "CIMU": {
    "city_state": "SPRINGFIELDIL",
    "gym_code": "CIMU",
    "gym_name": "Cityscape Mural",
    "lat_long": "39.801278,-89.650049",
    "gmap_link": "https://www.google.com/maps/place/39.801278,-89.650049"
  },
  "CIWAMU": {
    "city_state": "SPRINGFIELDIL",
    "gym_code": "CIWAMU",
    "gym_name": "Civil War Museum",
    "lat_long": "39.797726,-89.663514",
    "gmap_link": "https://www.google.com/maps/place/39.797726,-89.663514"
  },
  "COTEIS": {
    "city_state": "SPRINGFIELDIL",
    "gym_code": "COTEIS",
    "gym_name": "Congregation Temple Israel",
    "lat_long": "39.797619,-89.672733",
    "gmap_link": "https://www.google.com/maps/place/39.797619,-89.672733"
  },
  "CO&DI": {
    "city_state": "SPRINGFIELDIL",
    "gym_code": "CO&DI",
    "gym_name": "Corneau & Diller Drug Store",
    "lat_long": "39.800914,-89.647668",
    "gmap_link": "https://www.google.com/maps/place/39.800914,-89.647668"
  },
  "CRMA": {
    "city_state": "SPRINGFIELDIL",
    "gym_code": "CRMA",
    "gym_name": "Crab Marker",
    "lat_long": "39.698566,-89.597942",
    "gmap_link": "https://www.google.com/maps/place/39.698566,-89.597942"
  },
  "CYSYT9": {
    "city_state": "SPRINGFIELDIL",
    "gym_code": "CYSYT9",
    "gym_name": "CyBullDyne Systems T9000",
    "lat_long": "39.833961,-89.638114",
    "gmap_link": "https://www.google.com/maps/place/39.833961,-89.638114"
  },
  "DATHHO": {
    "city_state": "SPRINGFIELDIL",
    "gym_code": "DATHHO",
    "gym_name": "Dana Thomas House",
    "lat_long": "39.79388,-89.651399",
    "gmap_link": "https://www.google.com/maps/place/39.79388,-89.651399"
  },
  "D'PI": {
    "city_state": "SPRINGFIELDIL",
    "gym_code": "D'PI",
    "gym_name": "D'Arcy's Pint",
    "lat_long": "39.765398,-89.662885",
    "gmap_link": "https://www.google.com/maps/place/39.765398,-89.662885"
  },
  "DAANWI": {
    "city_state": "SPRINGFIELDIL",
    "gym_code": "DAANWI",
    "gym_name": "Darlene and William Hilger Memorial Plaque",
    "lat_long": "39.787783,-89.679214",
    "gmap_link": "https://www.google.com/maps/place/39.787783,-89.679214"
  },
  "DELA": {
    "city_state": "SPRINGFIELDIL",
    "gym_code": "DELA",
    "gym_name": "Deerwood Lake",
    "lat_long": "39.721293,-89.634839",
    "gmap_link": "https://www.google.com/maps/place/39.721293,-89.634839"
  },
  "DJMU": {
    "city_state": "SPRINGFIELDIL",
    "gym_code": "DJMU",
    "gym_name": "DJ's Mural",
    "lat_long": "39.782847,-89.667538",
    "gmap_link": "https://www.google.com/maps/place/39.782847,-89.667538"
  },
  "DOANPI": {
    "city_state": "SPRINGFIELDIL",
    "gym_code": "DOANPI",
    "gym_name": "Dome and Pillars",
    "lat_long": "39.824286,-89.655048",
    "gmap_link": "https://www.google.com/maps/place/39.824286,-89.655048"
  },
  "DOAVUN": {
    "city_state": "SPRINGFIELDIL",
    "gym_code": "DOAVUN",
    "gym_name": "Douglas Avenue United Methodist Church",
    "lat_long": "39.797737,-89.670977",
    "gmap_link": "https://www.google.com/maps/place/39.797737,-89.670977"
  },
  "DOPA": {
    "city_state": "SPRINGFIELDIL",
    "gym_code": "DOPA",
    "gym_name": "Douglas Park",
    "lat_long": "39.805869,-89.66812",
    "gmap_link": "https://www.google.com/maps/place/39.805869,-89.66812"
  },
  "DRPA": {
    "city_state": "SPRINGFIELDIL",
    "gym_code": "DRPA",
    "gym_name": "Dreamland Park",
    "lat_long": "39.775506,-89.619008",
    "gmap_link": "https://www.google.com/maps/place/39.775506,-89.619008"
  },
  "EAKEBA": {
    "city_state": "SPRINGFIELDIL",
    "gym_code": "EAKEBA",
    "gym_name": "East Keys Baptist Church",
    "lat_long": "39.819613,-89.62309",
    "gmap_link": "https://www.google.com/maps/place/39.819613,-89.62309"
  },
  "EASEMA": {
    "city_state": "SPRINGFIELDIL",
    "gym_code": "EASEMA",
    "gym_name": "East Seat Mason's Rest",
    "lat_long": "39.826884,-89.560496",
    "gmap_link": "https://www.google.com/maps/place/39.826884,-89.560496"
  },
  "EDWIWO": {
    "city_state": "SPRINGFIELDIL",
    "gym_code": "EDWIWO",
    "gym_name": "Editorial Without Words",
    "lat_long": "39.795233,-89.647855",
    "gmap_link": "https://www.google.com/maps/place/39.795233,-89.647855"
  },
  "ELAVBA": {
    "city_state": "SPRINGFIELDIL",
    "gym_code": "ELAVBA",
    "gym_name": "Elliot Avenue Baptist Church",
    "lat_long": "39.814442,-89.661119",
    "gmap_link": "https://www.google.com/maps/place/39.814442,-89.661119"
  },
  "ELSTCH": {
    "city_state": "SPRINGFIELDIL",
    "gym_code": "ELSTCH",
    "gym_name": "Elm Street Christian Church",
    "lat_long": "39.810678,-89.609889",
    "gmap_link": "https://www.google.com/maps/place/39.810678,-89.609889"
  },
  "ENONFO": {
    "city_state": "SPRINGFIELDIL",
    "gym_code": "ENONFO",
    "gym_name": "Energy One for Helmut",
    "lat_long": "39.803325,-89.658581",
    "gmap_link": "https://www.google.com/maps/place/39.803325,-89.658581"
  },
  "FALUCH": {
    "city_state": "SPRINGFIELDIL",
    "gym_code": "FALUCH",
    "gym_name": "Faith Lutheran Church",
    "lat_long": "39.774806,-89.659831",
    "gmap_link": "https://www.google.com/maps/place/39.774806,-89.659831"
  },
  "FATEAM": {
    "city_state": "SPRINGFIELDIL",
    "gym_code": "FATEAM",
    "gym_name": "Faith Temple AME Church",
    "lat_long": "39.792539,-89.622058",
    "gmap_link": "https://www.google.com/maps/place/39.792539,-89.622058"
  },
  "FEWH": {
    "city_state": "SPRINGFIELDIL",
    "gym_code": "FEWH",
    "gym_name": "Ferris Wheel",
    "lat_long": "39.749883,-89.671086",
    "gmap_link": "https://www.google.com/maps/place/39.749883,-89.671086"
  },
  "FIUNME": {
    "city_state": "SPRINGFIELDIL",
    "gym_code": "FIUNME",
    "gym_name": "First United Methodist Church",
    "lat_long": "39.759804,-89.717527",
    "gmap_link": "https://www.google.com/maps/place/39.759804,-89.717527"
  },
  "FOOFA": {
    "city_state": "SPRINGFIELDIL",
    "gym_code": "FOOFA",
    "gym_name": "Formation of a Circle",
    "lat_long": "39.803297,-89.656671",
    "gmap_link": "https://www.google.com/maps/place/39.803297,-89.656671"
  },
  "GAOFTH": {
    "city_state": "SPRINGFIELDIL",
    "gym_code": "GAOFTH",
    "gym_name": "Garden of the Gospels",
    "lat_long": "39.820696,-89.661092",
    "gmap_link": "https://www.google.com/maps/place/39.820696,-89.661092"
  },
  "GHOFTH": {
    "city_state": "SPRINGFIELDIL",
    "gym_code": "GHOFTH",
    "gym_name": "Ghosts of the Cinema",
    "lat_long": "39.739563,-89.678422",
    "gmap_link": "https://www.google.com/maps/place/39.739563,-89.678422"
  },
  "GISH": {
    "city_state": "SPRINGFIELDIL",
    "gym_code": "GISH",
    "gym_name": "Giant Shifter",
    "lat_long": "39.809897,-89.645119",
    "gmap_link": "https://www.google.com/maps/place/39.809897,-89.645119"
  },
  "GIWHCR": {
    "city_state": "SPRINGFIELDIL",
    "gym_code": "GIWHCR",
    "gym_name": "Giant White Crucifix",
    "lat_long": "39.743607,-89.660304",
    "gmap_link": "https://www.google.com/maps/place/39.743607,-89.660304"
  },
  "GIPA": {
    "city_state": "SPRINGFIELDIL",
    "gym_code": "GIPA",
    "gym_name": "Gietl Park",
    "lat_long": "39.824906,-89.615118",
    "gmap_link": "https://www.google.com/maps/place/39.824906,-89.615118"
  },
  "GLANCH": {
    "city_state": "SPRINGFIELDIL",
    "gym_code": "GLANCH",
    "gym_name": "Glass and Chrome",
    "lat_long": "39.820733,-89.648946",
    "gmap_link": "https://www.google.com/maps/place/39.820733,-89.648946"
  },
  "GOROFO": {
    "city_state": "SPRINGFIELDIL",
    "gym_code": "GOROFO",
    "gym_name": "Golf Rock Fountain Formation",
    "lat_long": "39.83363,-89.599373",
    "gmap_link": "https://www.google.com/maps/place/39.83363,-89.599373"
  },
  "GRLUCH": {
    "city_state": "SPRINGFIELDIL",
    "gym_code": "GRLUCH",
    "gym_name": "Grace Lutheran Church",
    "lat_long": "39.798151,-89.646429",
    "gmap_link": "https://www.google.com/maps/place/39.798151,-89.646429"
  },
  "HEROZO": {
    "city_state": "SPRINGFIELDIL",
    "gym_code": "HEROZO",
    "gym_name": "Henson Robinson Zoo",
    "lat_long": "39.727456,-89.583735",
    "gmap_link": "https://www.google.com/maps/place/39.727456,-89.583735"
  },
  "HIHI": {
    "city_state": "SPRINGFIELDIL",
    "gym_code": "HIHI",
    "gym_name": "Highway History",
    "lat_long": "39.763449,-89.670797",
    "gmap_link": "https://www.google.com/maps/place/39.763449,-89.670797"
  },
  "HOTRLU": {
    "city_state": "SPRINGFIELDIL",
    "gym_code": "HOTRLU",
    "gym_name": "Holy Trinity Lutheran Church",
    "lat_long": "39.802203,-89.635305",
    "gmap_link": "https://www.google.com/maps/place/39.802203,-89.635305"
  },
  "HOFOTH": {
    "city_state": "SPRINGFIELDIL",
    "gym_code": "HOFOTH",
    "gym_name": "Home for the Friendless Monument",
    "lat_long": "39.827006,-89.658467",
    "gmap_link": "https://www.google.com/maps/place/39.827006,-89.658467"
  },
  "HOABST": {
    "city_state": "SPRINGFIELDIL",
    "gym_code": "HOABST",
    "gym_name": "Honest Abe Statue",
    "lat_long": "39.750584,-89.670501",
    "gmap_link": "https://www.google.com/maps/place/39.750584,-89.670501"
  },
  "HOCH": {
    "city_state": "SPRINGFIELDIL",
    "gym_code": "HOCH",
    "gym_name": "Hope Church",
    "lat_long": "39.75654,-89.752913",
    "gmap_link": "https://www.google.com/maps/place/39.75654,-89.752913"
  },
  "HOPRCH": {
    "city_state": "SPRINGFIELDIL",
    "gym_code": "HOPRCH",
    "gym_name": "Hope Presbyterian Church",
    "lat_long": "39.765015,-89.697384",
    "gmap_link": "https://www.google.com/maps/place/39.765015,-89.697384"
  },
  "HOMUVI": {
    "city_state": "SPRINGFIELDIL",
    "gym_code": "HOMUVI",
    "gym_name": "Horse Mural Vinegar Hill",
    "lat_long": "39.795583,-89.655021",
    "gmap_link": "https://www.google.com/maps/place/39.795583,-89.655021"
  },
  "HOOFPR": {
    "city_state": "SPRINGFIELDIL",
    "gym_code": "HOOFPR",
    "gym_name": "House of Prayer Church",
    "lat_long": "39.814235,-89.658738",
    "gmap_link": "https://www.google.com/maps/place/39.814235,-89.658738"
  },
  "ICDE": {
    "city_state": "SPRINGFIELDIL",
    "gym_code": "ICDE",
    "gym_name": "Ice Deli",
    "lat_long": "39.795047,-89.705021",
    "gmap_link": "https://www.google.com/maps/place/39.795047,-89.705021"
  },
  "ILPA": {
    "city_state": "SPRINGFIELDIL",
    "gym_code": "ILPA",
    "gym_name": "Iles Park",
    "lat_long": "39.779393,-89.648196",
    "gmap_link": "https://www.google.com/maps/place/39.779393,-89.648196"
  },
  "ILBAST": {
    "city_state": "SPRINGFIELDIL",
    "gym_code": "ILBAST",
    "gym_name": "Illinois Baptist State Association",
    "lat_long": "39.758555,-89.609791",
    "gmap_link": "https://www.google.com/maps/place/39.758555,-89.609791"
  },
  "ILFIME": {
    "city_state": "SPRINGFIELDIL",
    "gym_code": "ILFIME",
    "gym_name": "Illinois Firefighter Memorial",
    "lat_long": "39.797822,-89.655933",
    "gmap_link": "https://www.google.com/maps/place/39.797822,-89.655933"
  },
  "ILNAGU": {
    "city_state": "SPRINGFIELDIL",
    "gym_code": "ILNAGU",
    "gym_name": "Illinois National Guard Camp Lincoln",
    "lat_long": "39.816376,-89.668819",
    "gmap_link": "https://www.google.com/maps/place/39.816376,-89.668819"
  },
  "ILSTEP": {
    "city_state": "SPRINGFIELDIL",
    "gym_code": "ILSTEP",
    "gym_name": "Illinois State EPA Library",
    "lat_long": "39.816959,-89.640916",
    "gmap_link": "https://www.google.com/maps/place/39.816959,-89.640916"
  },
  "ILSTFB": {
    "city_state": "SPRINGFIELDIL",
    "gym_code": "ILSTFB",
    "gym_name": "Illinois State Fair Building",
    "lat_long": "39.83273,-89.639904",
    "gmap_link": "https://www.google.com/maps/place/39.83273,-89.639904"
  },
  "ILSTFG": {
    "city_state": "SPRINGFIELDIL",
    "gym_code": "ILSTFG",
    "gym_name": "Illinois State Fair Grounds",
    "lat_long": "39.840921,-89.644734",
    "gmap_link": "https://www.google.com/maps/place/39.840921,-89.644734"
  },
  "IMCO": {
    "city_state": "SPRINGFIELDIL",
    "gym_code": "IMCO",
    "gym_name": "Impermanent Column",
    "lat_long": "39.732175,-89.619656",
    "gmap_link": "https://www.google.com/maps/place/39.732175,-89.619656"
  },
  "IRWO": {
    "city_state": "SPRINGFIELDIL",
    "gym_code": "IRWO",
    "gym_name": "Iron Worker",
    "lat_long": "39.794173,-89.609124",
    "gmap_link": "https://www.google.com/maps/place/39.794173,-89.609124"
  },
  "JGRCO": {
    "city_state": "SPRINGFIELDIL",
    "gym_code": "JGRCO",
    "gym_name": "J Gregory Conway",
    "lat_long": "39.696851,-89.597923",
    "gmap_link": "https://www.google.com/maps/place/39.696851,-89.597923"
  },
  "JWBR": {
    "city_state": "SPRINGFIELDIL",
    "gym_code": "JWBR",
    "gym_name": "J W Brant Stone Oak",
    "lat_long": "39.826109,-89.655692",
    "gmap_link": "https://www.google.com/maps/place/39.826109,-89.655692"
  },
  "JAGANE": {
    "city_state": "SPRINGFIELDIL",
    "gym_code": "JAGANE",
    "gym_name": "Jane Gair Nettie Cooper Memorial",
    "lat_long": "39.693553,-89.60577",
    "gmap_link": "https://www.google.com/maps/place/39.693553,-89.60577"
  },
  "KIPA": {
    "city_state": "SPRINGFIELDIL",
    "gym_code": "KIPA",
    "gym_name": "Kiwanis Park",
    "lat_long": "39.763797,-89.623028",
    "gmap_link": "https://www.google.com/maps/place/39.763797,-89.623028"
  },
  "KNACPA": {
    "city_state": "SPRINGFIELDIL",
    "gym_code": "KNACPA",
    "gym_name": "Knight's Action Park",
    "lat_long": "39.74142,-89.682533",
    "gmap_link": "https://www.google.com/maps/place/39.74142,-89.682533"
  },
  "KNOFCO": {
    "city_state": "SPRINGFIELDIL",
    "gym_code": "KNOFCO",
    "gym_name": "Knights of Columbus Hall 4175",
    "lat_long": "39.838615,-89.620139",
    "gmap_link": "https://www.google.com/maps/place/39.838615,-89.620139"
  },
  "KNCH": {
    "city_state": "SPRINGFIELDIL",
    "gym_code": "KNCH",
    "gym_name": "Knox Church",
    "lat_long": "39.759537,-89.635118",
    "gmap_link": "https://www.google.com/maps/place/39.759537,-89.635118"
  },
  "KOMICH": {
    "city_state": "SPRINGFIELDIL",
    "gym_code": "KOMICH",
    "gym_name": "Koke Mill Christian Church",
    "lat_long": "39.794078,-89.715554",
    "gmap_link": "https://www.google.com/maps/place/39.794078,-89.715554"
  },
  "LACOMU": {
    "city_state": "SPRINGFIELDIL",
    "gym_code": "LACOMU",
    "gym_name": "Lake Cove Mural",
    "lat_long": "39.740637,-89.608523",
    "gmap_link": "https://www.google.com/maps/place/39.740637,-89.608523"
  },
  "LATIME": {
    "city_state": "SPRINGFIELDIL",
    "gym_code": "LATIME",
    "gym_name": "Larry Timmony Memorial Garden",
    "lat_long": "39.818891,-89.653267",
    "gmap_link": "https://www.google.com/maps/place/39.818891,-89.653267"
  },
  "LAUNME": {
    "city_state": "SPRINGFIELDIL",
    "gym_code": "LAUNME",
    "gym_name": "Laurel United Methodist Church",
    "lat_long": "39.78715,-89.663029",
    "gmap_link": "https://www.google.com/maps/place/39.78715,-89.663029"
  },
  "LA": {
    "city_state": "SPRINGFIELDIL",
    "gym_code": "LA",
    "gym_name": "Lauterbach",
    "lat_long": "39.764267,-89.679835",
    "gmap_link": "https://www.google.com/maps/place/39.764267,-89.679835"
  },
  "LAAVCH": {
    "city_state": "SPRINGFIELDIL",
    "gym_code": "LAAVCH",
    "gym_name": "Lawrence Avenue Church of Christ",
    "lat_long": "39.793614,-89.63658",
    "gmap_link": "https://www.google.com/maps/place/39.793614,-89.63658"
  },
  "LADO": {
    "city_state": "SPRINGFIELDIL",
    "gym_code": "LADO",
    "gym_name": "Lazy Dog",
    "lat_long": "39.788007,-89.679099",
    "gmap_link": "https://www.google.com/maps/place/39.788007,-89.679099"
  },
  "LAME": {
    "city_state": "SPRINGFIELDIL",
    "gym_code": "LAME",
    "gym_name": "Lazzeri Memorial",
    "lat_long": "39.806,-89.643825",
    "gmap_link": "https://www.google.com/maps/place/39.806,-89.643825"
  },
  "LICRPR": {
    "city_state": "SPRINGFIELDIL",
    "gym_code": "LICRPR",
    "gym_name": "Lick Creek Preserve",
    "lat_long": "39.716223,-89.701741",
    "gmap_link": "https://www.google.com/maps/place/39.716223,-89.701741"
  },
  "LIGR": {
    "city_state": "SPRINGFIELDIL",
    "gym_code": "LIGR",
    "gym_name": "Lincoln Greens",
    "lat_long": "39.746961,-89.588169",
    "gmap_link": "https://www.google.com/maps/place/39.746961,-89.588169"
  },
  "LILACO": {
    "city_state": "SPRINGFIELDIL",
    "gym_code": "LILACO",
    "gym_name": "Lincoln Land Community College",
    "lat_long": "39.719917,-89.615654",
    "gmap_link": "https://www.google.com/maps/place/39.719917,-89.615654"
  },
  "LIMEGA": {
    "city_state": "SPRINGFIELDIL",
    "gym_code": "LIMEGA",
    "gym_name": "Lincoln Memorial Garden",
    "lat_long": "39.697089,-89.596806",
    "gmap_link": "https://www.google.com/maps/place/39.697089,-89.596806"
  },
  "LIPA": {
    "city_state": "SPRINGFIELDIL",
    "gym_code": "LIPA",
    "gym_name": "Lincoln Park",
    "lat_long": "39.82804,-89.654115",
    "gmap_link": "https://www.google.com/maps/place/39.82804,-89.654115"
  },
  "LIPABR": {
    "city_state": "SPRINGFIELDIL",
    "gym_code": "LIPABR",
    "gym_name": "Lincoln Park Bridge",
    "lat_long": "39.824164,-89.65156",
    "gmap_link": "https://www.google.com/maps/place/39.824164,-89.65156"
  },
  "LIPANE": {
    "city_state": "SPRINGFIELDIL",
    "gym_code": "LIPANE",
    "gym_name": "Lincoln Park Nelson Center",
    "lat_long": "39.830638,-89.649636",
    "gmap_link": "https://www.google.com/maps/place/39.830638,-89.649636"
  },
  "LIGEAD": {
    "city_state": "SPRINGFIELDIL",
    "gym_code": "LIGEAD",
    "gym_name": "Lincoln's Gettysburg Address",
    "lat_long": "39.755599,-89.589171",
    "gmap_link": "https://www.google.com/maps/place/39.755599,-89.589171"
  },
  "LIFLCH": {
    "city_state": "SPRINGFIELDIL",
    "gym_code": "LIFLCH",
    "gym_name": "Little Flower Church",
    "lat_long": "39.756657,-89.643727",
    "gmap_link": "https://www.google.com/maps/place/39.756657,-89.643727"
  },
  "LOHA": {
    "city_state": "SPRINGFIELDIL",
    "gym_code": "LOHA",
    "gym_name": "Logan Hall",
    "lat_long": "39.718458,-89.610671",
    "gmap_link": "https://www.google.com/maps/place/39.718458,-89.610671"
  },
  "LOOFTH": {
    "city_state": "SPRINGFIELDIL",
    "gym_code": "LOOFTH",
    "gym_name": "Lord of the Harvest Christian Church Center",
    "lat_long": "39.779207,-89.65856",
    "gmap_link": "https://www.google.com/maps/place/39.779207,-89.65856"
  },
  "LOHAPL": {
    "city_state": "SPRINGFIELDIL",
    "gym_code": "LOHAPL",
    "gym_name": "Lorraine Hansberry Plaque",
    "lat_long": "39.798189,-89.645878",
    "gmap_link": "https://www.google.com/maps/place/39.798189,-89.645878"
  },
  "LOBRTR": {
    "city_state": "SPRINGFIELDIL",
    "gym_code": "LOBRTR",
    "gym_name": "Lost Bridge Trail Entrance",
    "lat_long": "39.775005,-89.604698",
    "gmap_link": "https://www.google.com/maps/place/39.775005,-89.604698"
  },
  "LODEEV": {
    "city_state": "SPRINGFIELDIL",
    "gym_code": "LODEEV",
    "gym_name": "Love Deliverance Evangelical Church",
    "lat_long": "39.796887,-89.635442",
    "gmap_link": "https://www.google.com/maps/place/39.796887,-89.635442"
  },
  "MARE": {
    "city_state": "SPRINGFIELDIL",
    "gym_code": "MARE",
    "gym_name": "Mason's Rest",
    "lat_long": "39.821554,-89.660525",
    "gmap_link": "https://www.google.com/maps/place/39.821554,-89.660525"
  },
  "MUME": {
    "city_state": "SPRINGFIELDIL",
    "gym_code": "MUME",
    "gym_name": "Muffler Men",
    "lat_long": "39.786995,-89.6484",
    "gmap_link": "https://www.google.com/maps/place/39.786995,-89.6484"
  },
  "NASEME": {
    "city_state": "SPRINGFIELDIL",
    "gym_code": "NASEME",
    "gym_name": "Navy Seabees Memorial",
    "lat_long": "39.834652,-89.560772",
    "gmap_link": "https://www.google.com/maps/place/39.834652,-89.560772"
  },
  "NEAN": {
    "city_state": "SPRINGFIELDIL",
    "gym_code": "NEAN",
    "gym_name": "Nelson Angel",
    "lat_long": "39.827554,-89.654753",
    "gmap_link": "https://www.google.com/maps/place/39.827554,-89.654753"
  },
  "NOPA": {
    "city_state": "SPRINGFIELDIL",
    "gym_code": "NOPA",
    "gym_name": "North Park",
    "lat_long": "39.728453,-89.589092",
    "gmap_link": "https://www.google.com/maps/place/39.728453,-89.589092"
  },
  "NOVFPO": {
    "city_state": "SPRINGFIELDIL",
    "gym_code": "NOVFPO",
    "gym_name": "Northender's VFW Post 10302",
    "lat_long": "39.832806,-89.606428",
    "gmap_link": "https://www.google.com/maps/place/39.832806,-89.606428"
  },
  "OAHICE": {
    "city_state": "SPRINGFIELDIL",
    "gym_code": "OAHICE",
    "gym_name": "Oak Hill Cemetery",
    "lat_long": "39.819993,-89.563526",
    "gmap_link": "https://www.google.com/maps/place/39.819993,-89.563526"
  },
  "OARIAB": {
    "city_state": "SPRINGFIELDIL",
    "gym_code": "OARIAB",
    "gym_name": "Oak Ridge Abbey",
    "lat_long": "39.820559,-89.654746",
    "gmap_link": "https://www.google.com/maps/place/39.820559,-89.654746"
  },
  "OARICE": {
    "city_state": "SPRINGFIELDIL",
    "gym_code": "OARICE",
    "gym_name": "Oak Ridge Cemetery Entrance Arch",
    "lat_long": "39.824366,-89.653799",
    "gmap_link": "https://www.google.com/maps/place/39.824366,-89.653799"
  },
  "OLGLMU": {
    "city_state": "SPRINGFIELDIL",
    "gym_code": "OLGLMU",
    "gym_name": "Old Glory Mural",
    "lat_long": "39.823056,-89.640678",
    "gmap_link": "https://www.google.com/maps/place/39.823056,-89.640678"
  },
  "OLJARD": {
    "city_state": "SPRINGFIELDIL",
    "gym_code": "OLJARD",
    "gym_name": "Old Jacksonville Rd Water Tower",
    "lat_long": "39.787591,-89.693821",
    "gmap_link": "https://www.google.com/maps/place/39.787591,-89.693821"
  },
  "ONINA": {
    "city_state": "SPRINGFIELDIL",
    "gym_code": "ONINA",
    "gym_name": "One in a Million",
    "lat_long": "39.714489,-89.637576",
    "gmap_link": "https://www.google.com/maps/place/39.714489,-89.637576"
  },
  "PAGA": {
    "city_state": "SPRINGFIELDIL",
    "gym_code": "PAGA",
    "gym_name": "Park Gazebo",
    "lat_long": "39.80592,-89.666059",
    "gmap_link": "https://www.google.com/maps/place/39.80592,-89.666059"
  },
  "PEDONO": {
    "city_state": "SPRINGFIELDIL",
    "gym_code": "PEDONO",
    "gym_name": "Peace Does Not Appear So Distant As It Did",
    "lat_long": "39.695546,-89.607937",
    "gmap_link": "https://www.google.com/maps/place/39.695546,-89.607937"
  },
  "PIANDO": {
    "city_state": "SPRINGFIELDIL",
    "gym_code": "PIANDO",
    "gym_name": "Pillars and Dome",
    "lat_long": "39.824261,-89.659335",
    "gmap_link": "https://www.google.com/maps/place/39.824261,-89.659335"
  },
  "PISTPL": {
    "city_state": "SPRINGFIELDIL",
    "gym_code": "PISTPL",
    "gym_name": "Pioneer Store Plaque",
    "lat_long": "39.800278,-89.602404",
    "gmap_link": "https://www.google.com/maps/place/39.800278,-89.602404"
  },
  "PLBO": {
    "city_state": "SPRINGFIELDIL",
    "gym_code": "PLBO",
    "gym_name": "Plentiful Bounty",
    "lat_long": "39.843722,-89.639517",
    "gmap_link": "https://www.google.com/maps/place/39.843722,-89.639517"
  },
  "POAR": {
    "city_state": "SPRINGFIELDIL",
    "gym_code": "POAR",
    "gym_name": "Pole Archer",
    "lat_long": "39.813516,-89.696936",
    "gmap_link": "https://www.google.com/maps/place/39.813516,-89.696936"
  },
  "POOFME": {
    "city_state": "SPRINGFIELDIL",
    "gym_code": "POOFME",
    "gym_name": "Police Officer's Memorial",
    "lat_long": "39.798082,-89.655531",
    "gmap_link": "https://www.google.com/maps/place/39.798082,-89.655531"
  },
  "POBB": {
    "city_state": "SPRINGFIELDIL",
    "gym_code": "POBB",
    "gym_name": "Popeye's Bbq",
    "lat_long": "39.78737,-89.640131",
    "gmap_link": "https://www.google.com/maps/place/39.78737,-89.640131"
  },
  "POOB": {
    "city_state": "SPRINGFIELDIL",
    "gym_code": "POOB",
    "gym_name": "Populi Obelisk",
    "lat_long": "39.794647,-89.64075",
    "gmap_link": "https://www.google.com/maps/place/39.794647,-89.64075"
  },
  "PRWHCH": {
    "city_state": "SPRINGFIELDIL",
    "gym_code": "PRWHCH",
    "gym_name": "Prayer Wheel Church of God",
    "lat_long": "39.79062,-89.631209",
    "gmap_link": "https://www.google.com/maps/place/39.79062,-89.631209"
  },
  "PRFIIN": {
    "city_state": "SPRINGFIELDIL",
    "gym_code": "PRFIIN",
    "gym_name": "Prevention First Inc",
    "lat_long": "39.767793,-89.691091",
    "gmap_link": "https://www.google.com/maps/place/39.767793,-89.691091"
  },
  "RAASP": {
    "city_state": "SPRINGFIELDIL",
    "gym_code": "RAASP",
    "gym_name": "Rachel a Sperry Friendship Fort",
    "lat_long": "39.754283,-89.554944",
    "gmap_link": "https://www.google.com/maps/place/39.754283,-89.554944"
  },
  "RAGA": {
    "city_state": "SPRINGFIELDIL",
    "gym_code": "RAGA",
    "gym_name": "Rainbow Gateway",
    "lat_long": "39.833528,-89.603071",
    "gmap_link": "https://www.google.com/maps/place/39.833528,-89.603071"
  },
  "RAMEGA": {
    "city_state": "SPRINGFIELDIL",
    "gym_code": "RAMEGA",
    "gym_name": "Rainbow Memorial Garden",
    "lat_long": "39.788573,-89.708017",
    "gmap_link": "https://www.google.com/maps/place/39.788573,-89.708017"
  },
  "REBUCO": {
    "city_state": "SPRINGFIELDIL",
    "gym_code": "REBUCO",
    "gym_name": "Red Bud Council Ring",
    "lat_long": "39.69934,-89.595497",
    "gmap_link": "https://www.google.com/maps/place/39.69934,-89.595497"
  },
  "RIPA": {
    "city_state": "SPRINGFIELDIL",
    "gym_code": "RIPA",
    "gym_name": "Riverton Park",
    "lat_long": "39.847208,-89.544856",
    "gmap_link": "https://www.google.com/maps/place/39.847208,-89.544856"
  },
  "RIPADE": {
    "city_state": "SPRINGFIELDIL",
    "gym_code": "RIPADE",
    "gym_name": "Riverside Park Dedication Plaque",
    "lat_long": "39.859325,-89.619338",
    "gmap_link": "https://www.google.com/maps/place/39.859325,-89.619338"
  },
  "ROAST": {
    "city_state": "SPRINGFIELDIL",
    "gym_code": "ROAST",
    "gym_name": "Robert A Stuart Park",
    "lat_long": "39.824144,-89.701961",
    "gmap_link": "https://www.google.com/maps/place/39.824144,-89.701961"
  },
  "ROMEFO": {
    "city_state": "SPRINGFIELDIL",
    "gym_code": "ROMEFO",
    "gym_name": "Robert Melcher Fountain",
    "lat_long": "39.734715,-89.657365",
    "gmap_link": "https://www.google.com/maps/place/39.734715,-89.657365"
  },
  "ROROST": {
    "city_state": "SPRINGFIELDIL",
    "gym_code": "ROROST",
    "gym_name": "Robin Robert's Stadium",
    "lat_long": "39.816789,-89.636738",
    "gmap_link": "https://www.google.com/maps/place/39.816789,-89.636738"
  },
  "ROCE": {
    "city_state": "SPRINGFIELDIL",
    "gym_code": "ROCE",
    "gym_name": "Rochester Cemetery",
    "lat_long": "39.751362,-89.55093",
    "gmap_link": "https://www.google.com/maps/place/39.751362,-89.55093"
  },
  "ROMALO": {
    "city_state": "SPRINGFIELDIL",
    "gym_code": "ROMALO",
    "gym_name": "Rochester Masonic Lodge 635",
    "lat_long": "39.749815,-89.535404",
    "gmap_link": "https://www.google.com/maps/place/39.749815,-89.535404"
  },
  "ROPOOF": {
    "city_state": "SPRINGFIELDIL",
    "gym_code": "ROPOOF",
    "gym_name": "Rochester Post Office",
    "lat_long": "39.748453,-89.536291",
    "gmap_link": "https://www.google.com/maps/place/39.748453,-89.536291"
  },
  "ROPULI": {
    "city_state": "SPRINGFIELDIL",
    "gym_code": "ROPULI",
    "gym_name": "Rochester Public Library",
    "lat_long": "39.744637,-89.52649",
    "gmap_link": "https://www.google.com/maps/place/39.744637,-89.52649"
  },
  "ROUNME": {
    "city_state": "SPRINGFIELDIL",
    "gym_code": "ROUNME",
    "gym_name": "Rochester United Methodst Church",
    "lat_long": "39.743575,-89.537915",
    "gmap_link": "https://www.google.com/maps/place/39.743575,-89.537915"
  },
  "ROCUSO": {
    "city_state": "SPRINGFIELDIL",
    "gym_code": "ROCUSO",
    "gym_name": "Roman Cultural Society Garden",
    "lat_long": "39.788939,-89.685003",
    "gmap_link": "https://www.google.com/maps/place/39.788939,-89.685003"
  },
  "ROLAPI": {
    "city_state": "SPRINGFIELDIL",
    "gym_code": "ROLAPI",
    "gym_name": "Rose Lawn Pillar",
    "lat_long": "39.829285,-89.562029",
    "gmap_link": "https://www.google.com/maps/place/39.829285,-89.562029"
  },
  "ROMEPA": {
    "city_state": "SPRINGFIELDIL",
    "gym_code": "ROMEPA",
    "gym_name": "Roselawn Memorial Park Cemetery",
    "lat_long": "39.827786,-89.559109",
    "gmap_link": "https://www.google.com/maps/place/39.827786,-89.559109"
  },
  "ROPA": {
    "city_state": "SPRINGFIELDIL",
    "gym_code": "ROPA",
    "gym_name": "Rotary Park",
    "lat_long": "39.77095,-89.73878",
    "gmap_link": "https://www.google.com/maps/place/39.77095,-89.73878"
  },
  "SAFRXA": {
    "city_state": "SPRINGFIELDIL",
    "gym_code": "SAFRXA",
    "gym_name": "Saint Francis Xavier Church",
    "lat_long": "39.812911,-89.610556",
    "gmap_link": "https://www.google.com/maps/place/39.812911,-89.610556"
  },
  "SABE": {
    "city_state": "SPRINGFIELDIL",
    "gym_code": "SABE",
    "gym_name": "Saul Bellow",
    "lat_long": "39.7983,-89.64342",
    "gmap_link": "https://www.google.com/maps/place/39.7983,-89.64342"
  },
  "SCPLAC": {
    "city_state": "SPRINGFIELDIL",
    "gym_code": "SCPLAC",
    "gym_name": "Scouts Planting Acorns",
    "lat_long": "39.698944,-89.596342",
    "gmap_link": "https://www.google.com/maps/place/39.698944,-89.596342"
  },
  "SEARAT": {
    "city_state": "SPRINGFIELDIL",
    "gym_code": "SEARAT",
    "gym_name": "Selvaggio Arches at Southwind Park",
    "lat_long": "39.732338,-89.656114",
    "gmap_link": "https://www.google.com/maps/place/39.732338,-89.656114"
  },
  "SECIGA": {
    "city_state": "SPRINGFIELDIL",
    "gym_code": "SECIGA",
    "gym_name": "Semi Circles Garden",
    "lat_long": "39.78976,-89.685284",
    "gmap_link": "https://www.google.com/maps/place/39.78976,-89.685284"
  },
  "SEANSP": {
    "city_state": "SPRINGFIELDIL",
    "gym_code": "SEANSP",
    "gym_name": "Serpent and Spike",
    "lat_long": "39.807165,-89.679712",
    "gmap_link": "https://www.google.com/maps/place/39.807165,-89.679712"
  },
  "SHMU": {
    "city_state": "SPRINGFIELDIL",
    "gym_code": "SHMU",
    "gym_name": "Shea's Museum",
    "lat_long": "39.828832,-89.638323",
    "gmap_link": "https://www.google.com/maps/place/39.828832,-89.638323"
  },
  "SIMIRI": {
    "city_state": "SPRINGFIELDIL",
    "gym_code": "SIMIRI",
    "gym_name": "SIU Millenium Ring",
    "lat_long": "39.720341,-89.611748",
    "gmap_link": "https://www.google.com/maps/place/39.720341,-89.611748"
  },
  "SOSE": {
    "city_state": "SPRINGFIELDIL",
    "gym_code": "SOSE",
    "gym_name": "South Seat",
    "lat_long": "39.821215,-89.660415",
    "gmap_link": "https://www.google.com/maps/place/39.821215,-89.660415"
  },
  "SOVICO": {
    "city_state": "SPRINGFIELDIL",
    "gym_code": "SOVICO",
    "gym_name": "Southern View Community Park",
    "lat_long": "39.749949,-89.651091",
    "gmap_link": "https://www.google.com/maps/place/39.749949,-89.651091"
  },
  "SOVIPA": {
    "city_state": "SPRINGFIELDIL",
    "gym_code": "SOVIPA",
    "gym_name": "Southern View Park Playground",
    "lat_long": "39.751755,-89.650689",
    "gmap_link": "https://www.google.com/maps/place/39.751755,-89.650689"
  },
  "SPPA": {
    "city_state": "SPRINGFIELDIL",
    "gym_code": "SPPA",
    "gym_name": "Spaulding Park",
    "lat_long": "39.865491,-89.541714",
    "gmap_link": "https://www.google.com/maps/place/39.865491,-89.541714"
  },
  "SPANFA": {
    "city_state": "SPRINGFIELDIL",
    "gym_code": "SPANFA",
    "gym_name": "Spirit And Faith Ministries",
    "lat_long": "39.81388,-89.672187",
    "gmap_link": "https://www.google.com/maps/place/39.81388,-89.672187"
  },
  "SPCHOF": {
    "city_state": "SPRINGFIELDIL",
    "gym_code": "SPCHOF",
    "gym_name": "Springfield Church of Christ",
    "lat_long": "39.755747,-89.651298",
    "gmap_link": "https://www.google.com/maps/place/39.755747,-89.651298"
  },
  "SPFIST": {
    "city_state": "SPRINGFIELDIL",
    "gym_code": "SPFIST",
    "gym_name": "Springfield Fire Station 2",
    "lat_long": "39.757975,-89.613896",
    "gmap_link": "https://www.google.com/maps/place/39.757975,-89.613896"
  },
  "SPFICH": {
    "city_state": "SPRINGFIELDIL",
    "gym_code": "SPFICH",
    "gym_name": "Springfield First Church of the Nazarene",
    "lat_long": "39.727357,-89.642051",
    "gmap_link": "https://www.google.com/maps/place/39.727357,-89.642051"
  },
  "STALCH": {
    "city_state": "SPRINGFIELDIL",
    "gym_code": "STALCH",
    "gym_name": "St Aloysius Church",
    "lat_long": "39.830874,-89.628571",
    "gmap_link": "https://www.google.com/maps/place/39.830874,-89.628571"
  },
  "STJACA": {
    "city_state": "SPRINGFIELDIL",
    "gym_code": "STJACA",
    "gym_name": "St James Catholic Church",
    "lat_long": "39.845004,-89.540571",
    "gmap_link": "https://www.google.com/maps/place/39.845004,-89.540571"
  },
  "STJOLU": {
    "city_state": "SPRINGFIELDIL",
    "gym_code": "STJOLU",
    "gym_name": "St John's Lutheran Church",
    "lat_long": "39.802176,-89.697991",
    "gmap_link": "https://www.google.com/maps/place/39.802176,-89.697991"
  },
  "STJOCA": {
    "city_state": "SPRINGFIELDIL",
    "gym_code": "STJOCA",
    "gym_name": "St Joseph's Catholic Church",
    "lat_long": "39.818335,-89.647756",
    "gmap_link": "https://www.google.com/maps/place/39.818335,-89.647756"
  },
  "STJOTH": {
    "city_state": "SPRINGFIELDIL",
    "gym_code": "STJOTH",
    "gym_name": "St Josephs the Worker",
    "lat_long": "39.671401,-89.696445",
    "gmap_link": "https://www.google.com/maps/place/39.671401,-89.696445"
  },
  "STPACH": {
    "city_state": "SPRINGFIELDIL",
    "gym_code": "STPACH",
    "gym_name": "St Patrick's Church",
    "lat_long": "39.787078,-89.63123",
    "gmap_link": "https://www.google.com/maps/place/39.787078,-89.63123"
  },
  "STFROF": {
    "city_state": "SPRINGFIELDIL",
    "gym_code": "STFROF",
    "gym_name": "St. Francis of Assisi Statue",
    "lat_long": "39.757822,-89.638666",
    "gmap_link": "https://www.google.com/maps/place/39.757822,-89.638666"
  },
  "ST66CA": {
    "city_state": "SPRINGFIELDIL",
    "gym_code": "ST66CA",
    "gym_name": "Star 66 Cafe",
    "lat_long": "39.830672,-89.583406",
    "gmap_link": "https://www.google.com/maps/place/39.830672,-89.583406"
  },
  "STFABU": {
    "city_state": "SPRINGFIELDIL",
    "gym_code": "STFABU",
    "gym_name": "State Fair Butter Cow",
    "lat_long": "39.834184,-89.637843",
    "gmap_link": "https://www.google.com/maps/place/39.834184,-89.637843"
  },
  "STBU": {
    "city_state": "SPRINGFIELDIL",
    "gym_code": "STBU",
    "gym_name": "Steel Buffalo",
    "lat_long": "39.809635,-89.649549",
    "gmap_link": "https://www.google.com/maps/place/39.809635,-89.649549"
  },
  "STWIME": {
    "city_state": "SPRINGFIELDIL",
    "gym_code": "STWIME",
    "gym_name": "Steel Wire Mesh Ostrich",
    "lat_long": "39.743564,-89.616037",
    "gmap_link": "https://www.google.com/maps/place/39.743564,-89.616037"
  },
  "STCOPO": {
    "city_state": "SPRINGFIELDIL",
    "gym_code": "STCOPO",
    "gym_name": "Stone Cold Porpoise",
    "lat_long": "39.7271,-89.583053",
    "gmap_link": "https://www.google.com/maps/place/39.7271,-89.583053"
  },
  "STFO": {
    "city_state": "SPRINGFIELDIL",
    "gym_code": "STFO",
    "gym_name": "Stone Fountain",
    "lat_long": "39.827058,-89.651189",
    "gmap_link": "https://www.google.com/maps/place/39.827058,-89.651189"
  },
  "STSHHO": {
    "city_state": "SPRINGFIELDIL",
    "gym_code": "STSHHO",
    "gym_name": "Strawbridge Shepherd House",
    "lat_long": "39.722491,-89.616093",
    "gmap_link": "https://www.google.com/maps/place/39.722491,-89.616093"
  },
  "SUPA": {
    "city_state": "SPRINGFIELDIL",
    "gym_code": "SUPA",
    "gym_name": "Sunset Park",
    "lat_long": "39.724541,-89.582427",
    "gmap_link": "https://www.google.com/maps/place/39.724541,-89.582427"
  },
  "SWBU": {
    "city_state": "SPRINGFIELDIL",
    "gym_code": "SWBU",
    "gym_name": "Swine Building",
    "lat_long": "39.835879,-89.64423",
    "gmap_link": "https://www.google.com/maps/place/39.835879,-89.64423"
  },
  "TAOFLI": {
    "city_state": "SPRINGFIELDIL",
    "gym_code": "TAOFLI",
    "gym_name": "Table of Life Ministry",
    "lat_long": "39.798473,-89.62521",
    "gmap_link": "https://www.google.com/maps/place/39.798473,-89.62521"
  },
  "TAPAFO": {
    "city_state": "SPRINGFIELDIL",
    "gym_code": "TAPAFO",
    "gym_name": "Tai Pan Foo Dogs",
    "lat_long": "39.757767,-89.616936",
    "gmap_link": "https://www.google.com/maps/place/39.757767,-89.616936"
  },
  "THAR": {
    "city_state": "SPRINGFIELDIL",
    "gym_code": "THAR",
    "gym_name": "The Arena",
    "lat_long": "39.833857,-89.644863",
    "gmap_link": "https://www.google.com/maps/place/39.833857,-89.644863"
  },
  "THBETO": {
    "city_state": "SPRINGFIELDIL",
    "gym_code": "THBETO",
    "gym_name": "The Bell Tower",
    "lat_long": "39.808509,-89.663294",
    "gmap_link": "https://www.google.com/maps/place/39.808509,-89.663294"
  },
  "THCO": {
    "city_state": "SPRINGFIELDIL",
    "gym_code": "THCO",
    "gym_name": "The Coliseum",
    "lat_long": "39.834104,-89.640833",
    "gmap_link": "https://www.google.com/maps/place/39.834104,-89.640833"
  },
  "THGRB": {
    "city_state": "SPRINGFIELDIL",
    "gym_code": "THGRB",
    "gym_name": "The Graven B",
    "lat_long": "39.78946,-89.649144",
    "gmap_link": "https://www.google.com/maps/place/39.78946,-89.649144"
  },
  "THLI": {
    "city_state": "SPRINGFIELDIL",
    "gym_code": "THLI",
    "gym_name": "The Lighthouse",
    "lat_long": "39.749133,-89.536731",
    "gmap_link": "https://www.google.com/maps/place/39.749133,-89.536731"
  },
  "THLIDE": {
    "city_state": "SPRINGFIELDIL",
    "gym_code": "THLIDE",
    "gym_name": "The Lincoln Depot",
    "lat_long": "39.799283,-89.642595",
    "gmap_link": "https://www.google.com/maps/place/39.799283,-89.642595"
  },
  "THLUCH": {
    "city_state": "SPRINGFIELDIL",
    "gym_code": "THLUCH",
    "gym_name": "The Lutheran Church Missouri Synod",
    "lat_long": "39.816001,-89.684959",
    "gmap_link": "https://www.google.com/maps/place/39.816001,-89.684959"
  },
  "THPAHO": {
    "city_state": "SPRINGFIELDIL",
    "gym_code": "THPAHO",
    "gym_name": "The Pasfield House",
    "lat_long": "39.797232,-89.658737",
    "gmap_link": "https://www.google.com/maps/place/39.797232,-89.658737"
  },
  "THSOSU": {
    "city_state": "SPRINGFIELDIL",
    "gym_code": "THSOSU",
    "gym_name": "The Solar Sun Flower",
    "lat_long": "39.731664,-89.655828",
    "gmap_link": "https://www.google.com/maps/place/39.731664,-89.655828"
  },
  "THSP": {
    "city_state": "SPRINGFIELDIL",
    "gym_code": "THSP",
    "gym_name": "The Spartan",
    "lat_long": "39.779517,-89.620629",
    "gmap_link": "https://www.google.com/maps/place/39.779517,-89.620629"
  },
  "THSTST": {
    "city_state": "SPRINGFIELDIL",
    "gym_code": "THSTST",
    "gym_name": "The Stevens Stone House",
    "lat_long": "39.752781,-89.556742",
    "gmap_link": "https://www.google.com/maps/place/39.752781,-89.556742"
  },
  "THTHRE": {
    "city_state": "SPRINGFIELDIL",
    "gym_code": "THTHRE",
    "gym_name": "The Thomas Rees Memorial Carillon",
    "lat_long": "39.789364,-89.683533",
    "gmap_link": "https://www.google.com/maps/place/39.789364,-89.683533"
  },
  "THTEHO": {
    "city_state": "SPRINGFIELDIL",
    "gym_code": "THTEHO",
    "gym_name": "They Teach Hope To All Despair To None",
    "lat_long": "39.693828,-89.60302",
    "gmap_link": "https://www.google.com/maps/place/39.693828,-89.60302"
  },
  "THEYSU": {
    "city_state": "SPRINGFIELDIL",
    "gym_code": "THEYSU",
    "gym_name": "Third Eye Sun",
    "lat_long": "39.767598,-89.668327",
    "gmap_link": "https://www.google.com/maps/place/39.767598,-89.668327"
  },
  "THPRCH": {
    "city_state": "SPRINGFIELDIL",
    "gym_code": "THPRCH",
    "gym_name": "Third Presbyterian Church",
    "lat_long": "39.81419,-89.645949",
    "gmap_link": "https://www.google.com/maps/place/39.81419,-89.645949"
  },
  "TOMAPA": {
    "city_state": "SPRINGFIELDIL",
    "gym_code": "TOMAPA",
    "gym_name": "Tom Madonia Park East",
    "lat_long": "39.760655,-89.58764",
    "gmap_link": "https://www.google.com/maps/place/39.760655,-89.58764"
  },
  "TREVLU": {
    "city_state": "SPRINGFIELDIL",
    "gym_code": "TREVLU",
    "gym_name": "Trinity Evangelical Lutheran Church",
    "lat_long": "39.799641,-89.653122",
    "gmap_link": "https://www.google.com/maps/place/39.799641,-89.653122"
  },
  "UIGR": {
    "city_state": "SPRINGFIELDIL",
    "gym_code": "UIGR",
    "gym_name": "UIS Greenhouse",
    "lat_long": "39.728365,-89.616534",
    "gmap_link": "https://www.google.com/maps/place/39.728365,-89.616534"
  },
  "UNSN": {
    "city_state": "SPRINGFIELDIL",
    "gym_code": "UNSN",
    "gym_name": "Uncle Snowman",
    "lat_long": "39.8131,-89.612745",
    "gmap_link": "https://www.google.com/maps/place/39.8131,-89.612745"
  },
  "UNMECE": {
    "city_state": "SPRINGFIELDIL",
    "gym_code": "UNMECE",
    "gym_name": "United Methodist Center",
    "lat_long": "39.716349,-89.652329",
    "gmap_link": "https://www.google.com/maps/place/39.716349,-89.652329"
  },
  "UNSTPO": {
    "city_state": "SPRINGFIELDIL",
    "gym_code": "UNSTPO",
    "gym_name": "United States Post Office",
    "lat_long": "39.776147,-89.669636",
    "gmap_link": "https://www.google.com/maps/place/39.776147,-89.669636"
  },
  "VEMEFO": {
    "city_state": "SPRINGFIELDIL",
    "gym_code": "VEMEFO",
    "gym_name": "Veteran's Memorial Fountain",
    "lat_long": "39.844537,-89.544288",
    "gmap_link": "https://www.google.com/maps/place/39.844537,-89.544288"
  },
  "VIOFJE": {
    "city_state": "SPRINGFIELDIL",
    "gym_code": "VIOFJE",
    "gym_name": "Village of Jerome Library",
    "lat_long": "39.767473,-89.681382",
    "gmap_link": "https://www.google.com/maps/place/39.767473,-89.681382"
  },
  "VIOFRI": {
    "city_state": "SPRINGFIELDIL",
    "gym_code": "VIOFRI",
    "gym_name": "Village of Riverton",
    "lat_long": "39.859849,-89.531152",
    "gmap_link": "https://www.google.com/maps/place/39.859849,-89.531152"
  },
  "WAGIMO": {
    "city_state": "SPRINGFIELDIL",
    "gym_code": "WAGIMO",
    "gym_name": "Wabash Giant Morel",
    "lat_long": "39.764066,-89.682476",
    "gmap_link": "https://www.google.com/maps/place/39.764066,-89.682476"
  },
  "WAURME": {
    "city_state": "SPRINGFIELDIL",
    "gym_code": "WAURME",
    "gym_name": "Waddle Urn Memorial",
    "lat_long": "39.820188,-89.563138",
    "gmap_link": "https://www.google.com/maps/place/39.820188,-89.563138"
  },
  "WABR": {
    "city_state": "SPRINGFIELDIL",
    "gym_code": "WABR",
    "gym_name": "Walgreen Bridge",
    "lat_long": "39.695721,-89.601",
    "gmap_link": "https://www.google.com/maps/place/39.695721,-89.601"
  },
  "WAPAGA": {
    "city_state": "SPRINGFIELDIL",
    "gym_code": "WAPAGA",
    "gym_name": "Washington Park Gazebo",
    "lat_long": "39.788233,-89.674421",
    "gmap_link": "https://www.google.com/maps/place/39.788233,-89.674421"
  },
  "WASTGA": {
    "city_state": "SPRINGFIELDIL",
    "gym_code": "WASTGA",
    "gym_name": "Washington Street Gazebo",
    "lat_long": "39.80166,-89.673261",
    "gmap_link": "https://www.google.com/maps/place/39.80166,-89.673261"
  },
  "WAPLWA": {
    "city_state": "SPRINGFIELDIL",
    "gym_code": "WAPLWA",
    "gym_name": "Waterford Place Waterfall",
    "lat_long": "39.794263,-89.685079",
    "gmap_link": "https://www.google.com/maps/place/39.794263,-89.685079"
  },
  "WESICH": {
    "city_state": "SPRINGFIELDIL",
    "gym_code": "WESICH",
    "gym_name": "West Side Christian Church",
    "lat_long": "39.808345,-89.708072",
    "gmap_link": "https://www.google.com/maps/place/39.808345,-89.708072"
  },
  "WHOAMA": {
    "city_state": "SPRINGFIELDIL",
    "gym_code": "WHOAMA",
    "gym_name": "White Oaks Mall Carousel",
    "lat_long": "39.767227,-89.703733",
    "gmap_link": "https://www.google.com/maps/place/39.767227,-89.703733"
  },
  "WHTADE": {
    "city_state": "SPRINGFIELDIL",
    "gym_code": "WHTADE",
    "gym_name": "White Tailed Deer by John Keary",
    "lat_long": "39.797871,-89.657722",
    "gmap_link": "https://www.google.com/maps/place/39.797871,-89.657722"
  },
  "WIED": {
    "city_state": "SPRINGFIELDIL",
    "gym_code": "WIED",
    "gym_name": "Window's Edge",
    "lat_long": "39.732562,-89.62012",
    "gmap_link": "https://www.google.com/maps/place/39.732562,-89.62012"
  },
  "WOLI": {
    "city_state": "SPRINGFIELDIL",
    "gym_code": "WOLI",
    "gym_name": "Wooden Lincoln",
    "lat_long": "39.74709,-89.594156",
    "gmap_link": "https://www.google.com/maps/place/39.74709,-89.594156"
  },
  "WOUNME": {
    "city_state": "SPRINGFIELDIL",
    "gym_code": "WOUNME",
    "gym_name": "Woodside United Methodist Church",
    "lat_long": "39.75238,-89.620734",
    "gmap_link": "https://www.google.com/maps/place/39.75238,-89.620734"
  },
  "WOARUS": {
    "city_state": "SPRINGFIELDIL",
    "gym_code": "WOARUS",
    "gym_name": "World around us",
    "lat_long": "39.8381,-89.644928",
    "gmap_link": "https://www.google.com/maps/place/39.8381,-89.644928"
  },
  "YESU": {
    "city_state": "SPRINGFIELDIL",
    "gym_code": "YESU",
    "gym_name": "Yellow Submarine",
    "lat_long": "39.739315,-89.683737",
    "gmap_link": "https://www.google.com/maps/place/39.739315,-89.683737"
  },
  "ZETICL": {
    "city_state": "SPRINGFIELDIL",
    "gym_code": "ZETICL",
    "gym_name": "Zelle Title Clock",
    "lat_long": "39.787109,-89.660947",
    "gmap_link": "https://www.google.com/maps/place/39.787109,-89.660947"
  },
  "ZIBACH": {
    "city_state": "SPRINGFIELDIL",
    "gym_code": "ZIBACH",
    "gym_name": "Zion Baptist Church",
    "lat_long": "39.78327,-89.633293",
    "gmap_link": "https://www.google.com/maps/place/39.78327,-89.633293"
  }
}